{"a":[{"id":"11752","city_name":"\u963f\u575d\u5dde","en_name":"Aba","pingyin":"aba","country_id":"11","latitude":"31.899412","longitude":"102.224655","status":"1","plantocounts":"0","beentocounts":"0","livedcounts":"0"},{"id":"7092","city_name":"\u963f\u5df4\u574e","en_name":"Abakan","pingyin":"abakan","country_id":"208","latitude":"53.715557","longitude":"91.429169","status":"1","plantocounts":"6","beentocounts":"16","livedcounts":"0"},{"id":"10729","city_name":"\u963f\u5df4\u65af\u6e2f","en_name":"Bandar Abbas","pingyin":"abasigang","country_id":"568","latitude":"27.183332","longitude":"56.266666","status":"1","plantocounts":"43","beentocounts":"133","livedcounts":"0"},{"id":"10994","city_name":"\u963f\u8d1d\u6e56","en_name":"Lake Abhe","pingyin":"abeihu","country_id":"467","latitude":"11.198683","longitude":"41.780548","status":"1","plantocounts":"1","beentocounts":"16","livedcounts":"0"},{"id":"11044","city_name":"\u963f\u8d1d\u6b47","en_name":"Ab\u00e9ch\u00e9","pingyin":"abeixie","country_id":"574","latitude":"13.833056","longitude":"20.834723","status":"1","plantocounts":"1","beentocounts":"7","livedcounts":"3"},{"id":"10888","city_name":"\u963f\u6bd4\u52a0\u5854-\u8428\u62c9\u6e56\u56fd\u5bb6\u516c\u56ed","en_name":"Abijatta Shalla Lakes National Park","pingyin":"abijiatasalahuguojiagongyuan","country_id":"405","latitude":"7.618487","longitude":"38.600533","status":"1","plantocounts":"12","beentocounts":"22","livedcounts":"0"},{"id":"11202","city_name":"\u963f\u6bd4\u7eb3\u5e15\u4fdd\u62a4\u533a","en_name":"Api Nampa Conservation Area","pingyin":"abinapabaohuqu","country_id":"220","latitude":"29.936346","longitude":"80.898651","status":"1","plantocounts":"133","beentocounts":"120","livedcounts":"0"},{"id":"15705","city_name":"\u963f\u6bd4\u4e18","en_name":"Abiquiu","pingyin":"abiqiu","country_id":"236","latitude":"36.207241","longitude":"-106.318642","status":"1","plantocounts":"3","beentocounts":"0","livedcounts":"0"},{"id":"7698","city_name":"\u963f\u6bd4\u8ba9","en_name":"Abidjan","pingyin":"abirang","country_id":"480","latitude":"5.341111","longitude":"-4.028056","status":"1","plantocounts":"4","beentocounts":"119","livedcounts":"1"},{"id":"8623","city_name":"\u963f\u6bd4\u65af\u5e93","en_name":"Abisko","pingyin":"abisiku","country_id":"202","latitude":"68.333336","longitude":"18.850000","status":"1","plantocounts":"772","beentocounts":"1535","livedcounts":"1"},{"id":"10488","city_name":"\u963f\u4f2f\u5fb7\u5c14\u56fd\u5bb6\u516c\u56ed","en_name":"Aberdare National Park","pingyin":"abodeerguojiagongyuan","country_id":"483","latitude":"-0.416667","longitude":"36.666668","status":"1","plantocounts":"160","beentocounts":"208","livedcounts":"0"},{"id":"8751","city_name":"\u963f\u4f2f\u4e01","en_name":"Aberdeen","pingyin":"aboding","country_id":"13","latitude":"57.133331","longitude":"-2.100000","status":"1","plantocounts":"110","beentocounts":"1055","livedcounts":"8"},{"id":"8949","city_name":"\u963f\u4f2f\u91cc\u65af\u7279\u5a01\u65af","en_name":"Aberystwyth","pingyin":"abolisiteweisi","country_id":"13","latitude":"52.416668","longitude":"-4.066667","status":"1","plantocounts":"17","beentocounts":"77","livedcounts":"7"},{"id":"10325","city_name":"\u963f\u6ce2\u7f57\u5c0f\u9547","en_name":"Apollo Bay","pingyin":"aboluoxiaozhen","country_id":"240","latitude":"-38.757168","longitude":"143.669617","status":"1","plantocounts":"710","beentocounts":"3873","livedcounts":"0"},{"id":"10924","city_name":"\u963f\u6ce2\u7f8e","en_name":"Abomey","pingyin":"abomei","country_id":"423","latitude":"7.183616","longitude":"1.988992","status":"1","plantocounts":"3","beentocounts":"26","livedcounts":"0"},{"id":"15517","city_name":"\u963f\u5e03\u54c8\u5179","en_name":"Abkhazia","pingyin":"abuhazi","country_id":"457","latitude":"43.254425","longitude":"40.965500","status":"1","plantocounts":"0","beentocounts":"9","livedcounts":"0"},{"id":"8438","city_name":"\u963f\u5e03\u8d3e","en_name":"Abuja","pingyin":"abujia","country_id":"520","latitude":"9.072784","longitude":"7.482957","status":"1","plantocounts":"17","beentocounts":"177","livedcounts":"1"},{"id":"13236","city_name":"\u963f\u5e03\u9c81\u4f50\u5927\u533a","en_name":"Abruzzo","pingyin":"abuluzuodaqu","country_id":"189","latitude":"42.192013","longitude":"13.728917","status":"1","plantocounts":"1","beentocounts":"110","livedcounts":"0"},{"id":"10001","city_name":"\u963f\u5e03\u5c71","en_name":"Mount Abu","pingyin":"abushan","country_id":"231","latitude":"24.592501","longitude":"72.715553","status":"1","plantocounts":"25","beentocounts":"25","livedcounts":"0"},{"id":"10480","city_name":"\u963f\u5e03\u8f9b\u8d1d","en_name":"Abu Simbel","pingyin":"abuxinbei","country_id":"244","latitude":"22.374437","longitude":"31.602772","status":"1","plantocounts":"400","beentocounts":"2750","livedcounts":"0"},{"id":"6403","city_name":"\u963f\u5e03\u624e\u6bd4","en_name":"Abu dhabi","pingyin":"abuzhabi","country_id":"402","latitude":"24.466667","longitude":"54.366669","status":"1","plantocounts":"869","beentocounts":"6908","livedcounts":"11"},{"id":"12328","city_name":"\u963f\u57ce","en_name":"Acheng","pingyin":"acheng","country_id":"11","latitude":"45.548672","longitude":"126.958099","status":"1","plantocounts":"0","beentocounts":"0","livedcounts":"0"},{"id":"13537","city_name":"\u963f\u5f7b\u5947\u6d1b\u65af","en_name":"Archangelos","pingyin":"acheqiluosi","country_id":"206","latitude":"36.214527","longitude":"28.116926","status":"1","plantocounts":"7","beentocounts":"0","livedcounts":"0"},{"id":"13538","city_name":"\u963f\u8328\u7279\u96f7\u624e","en_name":"Acitrezza","pingyin":"aciteleizha","country_id":"189","latitude":"41.504704","longitude":"12.684392","status":"1","plantocounts":"3","beentocounts":"1","livedcounts":"0"},{"id":"11387","city_name":"\u963f\u8fbe\u7eb3","en_name":"Adana","pingyin":"adana","country_id":"195","latitude":"37.000000","longitude":"35.321335","status":"1","plantocounts":"58","beentocounts":"91","livedcounts":"0"},{"id":"13539","city_name":"\u963f\u5fb7\u6839\u65af\u7ef4\u5c14","en_name":"Adligenswil","pingyin":"adegensiweier","country_id":"524","latitude":"47.070759","longitude":"8.366561","status":"1","plantocounts":"14","beentocounts":"2","livedcounts":"0"},{"id":"6325","city_name":"\u963f\u5fb7\u62c9\u5c14","en_name":"Adrar","pingyin":"adelaerdiqu","country_id":"400","latitude":"27.866667","longitude":"-0.283333","status":"1","plantocounts":"2","beentocounts":"14","livedcounts":"0"},{"id":"6591","city_name":"\u963f\u5fb7\u83b1\u5fb7","en_name":"Adelaide","pingyin":"adelaide","country_id":"240","latitude":"-34.933334","longitude":"138.600006","status":"1","plantocounts":"894","beentocounts":"3428","livedcounts":"49"},{"id":"13346","city_name":"\u963f\u5fb7\u671b","en_name":"Ardevon","pingyin":"adewang","country_id":"186","latitude":"48.602383","longitude":"-1.474040","status":"1","plantocounts":"7","beentocounts":"2","livedcounts":"0"},{"id":"10815","city_name":"\u963f\u5fb7\u4e9a\u66fc","en_name":"Adiyaman","pingyin":"adeyaman","country_id":"195","latitude":"37.764751","longitude":"38.278561","status":"1","plantocounts":"24","beentocounts":"32","livedcounts":"0"},{"id":"13540","city_name":"\u963f\u8482\u65af\u8499\u65af","en_name":"Athis-Mons","pingyin":"adisimengsi","country_id":"186","latitude":"48.709297","longitude":"2.384790","status":"1","plantocounts":"4","beentocounts":"2","livedcounts":"0"},{"id":"7721","city_name":"\u963f\u8482\u4e4c\u5c9b","en_name":"Atiu","pingyin":"adiwudao","country_id":"484","latitude":"-19.997103","longitude":"-158.113724","status":"1","plantocounts":"12","beentocounts":"6","livedcounts":"0"},{"id":"13541","city_name":"\u963f\u6069\u591a\u592b","en_name":"Haundorf","pingyin":"aenduofu","country_id":"15","latitude":"49.183334","longitude":"10.766667","status":"1","plantocounts":"3","beentocounts":"0","livedcounts":"0"},{"id":"15400","city_name":"\u963f\u5c14\u62dc\u8d6b\u96f7","en_name":"Arvaikheer","pingyin":"aerbaihelei","country_id":"507","latitude":"46.266109","longitude":"102.777779","status":"1","plantocounts":"2","beentocounts":"3","livedcounts":"0"},{"id":"13542","city_name":"\u963f\u5c14\u5df4\u62c9\u8f9b","en_name":"Albarrac\u00edn","pingyin":"aerbalaxin","country_id":"182","latitude":"40.407558","longitude":"-1.443876","status":"1","plantocounts":"17","beentocounts":"37","livedcounts":"0"},{"id":"13544","city_name":"\u963f\u5c14\u90a6","en_name":"Arbon","pingyin":"aerbang","country_id":"524","latitude":"47.516720","longitude":"9.431605","status":"1","plantocounts":"2","beentocounts":"3","livedcounts":"0"},{"id":"7881","city_name":"\u963f\u5c14\u5df4\u5c3c","en_name":"Albany","pingyin":"aerbani","country_id":"236","latitude":"42.652580","longitude":"-73.756233","status":"1","plantocounts":"31","beentocounts":"508","livedcounts":"6"},{"id":"13543","city_name":"\u963f\u5c14\u5df4\u5854\u514b\u65af","en_name":"\u00c0rbatax","pingyin":"aerbatakesi","country_id":"189","latitude":"39.933434","longitude":"9.703559","status":"1","plantocounts":"2","beentocounts":"0","livedcounts":"0"},{"id":"13545","city_name":"\u963f\u5c14\u5351\u5df4\u8d6b","en_name":"Alpbach","pingyin":"aerbeibahe","country_id":"198","latitude":"47.399101","longitude":"11.943141","status":"1","plantocounts":"8","beentocounts":"41","livedcounts":"0"},{"id":"11124","city_name":"\u963f\u5c14\u8d1d\u62c9","en_name":"Arbil","pingyin":"aerbeila","country_id":"1035","latitude":"36.191113","longitude":"44.009167","status":"1","plantocounts":"7","beentocounts":"45","livedcounts":"0"},{"id":"9268","city_name":"\u963f\u5c14\u8d1d\u7f57\u8d1d\u6d1b","en_name":"Alberobello","pingyin":"aerbeiluobeiluo","country_id":"189","latitude":"40.786423","longitude":"17.240931","status":"1","plantocounts":"257","beentocounts":"362","livedcounts":"1"},{"id":"6860","city_name":"\u963f\u5c14\u8d1d\u7eb3","en_name":"Albena","pingyin":"aerbeina","country_id":"421","latitude":"43.366596","longitude":"28.079473","status":"1","plantocounts":"14","beentocounts":"13","livedcounts":"0"},{"id":"13139","city_name":"\u963f\u5c14\u8d1d\u7ef4\u5c14","en_name":"Albertville","pingyin":"aerbeiweier","country_id":"186","latitude":"45.675533","longitude":"6.392726","status":"1","plantocounts":"17","beentocounts":"40","livedcounts":"0"},{"id":"7191","city_name":"\u963f\u5c14\u6bd4","en_name":"Albi","pingyin":"aerbiaerbi","country_id":"186","latitude":"43.933334","longitude":"2.150000","status":"1","plantocounts":"51","beentocounts":"300","livedcounts":"0"},{"id":"11326","city_name":"\u963f\u5c14\u6bd4\u7eb3","en_name":"Albina","pingyin":"aerbina","country_id":"1293","latitude":"5.505068","longitude":"-54.079346","status":"1","plantocounts":"3","beentocounts":"11","livedcounts":"0"},{"id":"13546","city_name":"\u963f\u5c14\u4f2f\u65af\u5854\u7279","en_name":"Albstadt","pingyin":"aerbositate","country_id":"15","latitude":"48.213703","longitude":"9.023426","status":"1","plantocounts":"4","beentocounts":"1","livedcounts":"0"},{"id":"13547","city_name":"\u963f\u5c14\u4f2f\u6c83","en_name":"Albeuve","pingyin":"aerbowo","country_id":"524","latitude":"46.517933","longitude":"7.055423","status":"1","plantocounts":"1","beentocounts":"3","livedcounts":"0"},{"id":"11094","city_name":"\u963f\u5c14\u5e03\u8d39\u62c9","en_name":"Albufeira","pingyin":"aerbufeila","country_id":"523","latitude":"37.089073","longitude":"-8.247880","status":"1","plantocounts":"21","beentocounts":"146","livedcounts":"0"},{"id":"7864","city_name":"\u963f\u5c14\u4f2f\u514b\u57fa","en_name":"Albuquerque","pingyin":"aerbukaike","country_id":"236","latitude":"35.084442","longitude":"-106.650558","status":"1","plantocounts":"71","beentocounts":"384","livedcounts":"1"},{"id":"10880","city_name":"\u963f\u5c14\u8fbe\u6bd4\u52d2","en_name":"Ardabil","pingyin":"aerdabile","country_id":"568","latitude":"38.246471","longitude":"48.295052","status":"1","plantocounts":"13","beentocounts":"30","livedcounts":"0"},{"id":"13549","city_name":"\u963f\u5c14\u8482\u6bd4\u6cb3\u7554\u5b54\u666e\u65af","en_name":"Comps-sur-Artuby","pingyin":"aerdibihepankongpusi","country_id":"186","latitude":"43.709553","longitude":"6.508940","status":"1","plantocounts":"1","beentocounts":"0","livedcounts":"0"},{"id":"13550","city_name":"\u963f\u5c14\u6cd5\u8bfa\u7eb3\u5854","en_name":"Alfiano Natta","pingyin":"aerfanuonata","country_id":"189","latitude":"45.046398","longitude":"8.208565","status":"1","plantocounts":"0","beentocounts":"0","livedcounts":"0"},{"id":"9269","city_name":"\u963f\u5c14\u76d6\u7f57","en_name":"Alghero","pingyin":"aergailuo","country_id":"189","latitude":"40.558887","longitude":"8.318056","status":"1","plantocounts":"9","beentocounts":"119","livedcounts":"0"},{"id":"13551","city_name":"\u963f\u5c14\u9ad8\u5185\u7684\u4f0a\u95e8\u65bd\u5854\u7279","en_name":"Immenstadt im Allg\u00e4u","pingyin":"aergaoneideyimenshitate","country_id":"15","latitude":"47.559219","longitude":"10.220664","status":"1","plantocounts":"1","beentocounts":"5","livedcounts":"0"},{"id":"13185","city_name":"\u963f\u5c14\u9ad8\u5dde","en_name":"Kanton Aargau","pingyin":"aergaozhou","country_id":"524","latitude":"47.387665","longitude":"8.255429","status":"1","plantocounts":"0","beentocounts":"423","livedcounts":"0"},{"id":"11232","city_name":"\u963f\u5c14\u6208\u65af","en_name":"Argos","pingyin":"aergesi","country_id":"206","latitude":"37.635174","longitude":"22.728859","status":"1","plantocounts":"65","beentocounts":"85","livedcounts":"0"},{"id":"9924","city_name":"\u963f\u5c14\u6c49\u683c\u5c14\u65af\u514b","en_name":"Arkhangelsk","pingyin":"aerhangeersike","country_id":"208","latitude":"64.538521","longitude":"40.514854","status":"1","plantocounts":"7","beentocounts":"12","livedcounts":"0"},{"id":"9066","city_name":"\u963f\u5c14\u8d6b\u897f\u62c9\u65af","en_name":"Algeciras","pingyin":"aerhexilasi","country_id":"182","latitude":"36.127499","longitude":"-5.453889","status":"1","plantocounts":"26","beentocounts":"189","livedcounts":"0"},{"id":"6326","city_name":"\u963f\u5c14\u53ca\u5c14","en_name":"Algiers","pingyin":"aerjier","country_id":"400","latitude":"36.763058","longitude":"3.050556","status":"1","plantocounts":"67","beentocounts":"459","livedcounts":"10"},{"id":"13552","city_name":"\u963f\u5c14\u8003\u672c\u8fbe\u65af","en_name":"Alcobendas","pingyin":"aerkaobendasi","country_id":"182","latitude":"40.537251","longitude":"-3.637224","status":"1","plantocounts":"1","beentocounts":"9","livedcounts":"0"},{"id":"11190","city_name":"\u963f\u5c14\u79d1\u5df4\u8428","en_name":"Alcoba\u00e7a","pingyin":"aerkebasa","country_id":"523","latitude":"39.548668","longitude":"-8.979649","status":"1","plantocounts":"15","beentocounts":"123","livedcounts":"0"},{"id":"10138","city_name":"\u963f\u5c14\u514b\u9a6c\u5c14","en_name":"Alkmaar","pingyin":"aerkemaer","country_id":"200","latitude":"52.632282","longitude":"4.750806","status":"1","plantocounts":"49","beentocounts":"272","livedcounts":"1"},{"id":"13553","city_name":"\u963f\u5c14\u79d1\u65af-\u5fb7\u62c9\u5f17\u9f99\u7279\u62c9","en_name":"Arcos de la Frontera","pingyin":"aerkesidelafulongtela","country_id":"182","latitude":"36.756004","longitude":"-5.811652","status":"1","plantocounts":"3","beentocounts":"40","livedcounts":"0"},{"id":"7192","city_name":"\u963f\u5c14\u52d2","en_name":"Arles","pingyin":"aerle","country_id":"186","latitude":"43.676674","longitude":"4.627502","status":"1","plantocounts":"1098","beentocounts":"4807","livedcounts":"7"},{"id":"13554","city_name":"\u963f\u5c14\u6885\u52d2","en_name":"Almere","pingyin":"aermeile","country_id":"200","latitude":"52.350784","longitude":"5.264702","status":"1","plantocounts":"2","beentocounts":"47","livedcounts":"1"},{"id":"9409","city_name":"\u963f\u5c14\u83ab\u62c9","en_name":"Almora","pingyin":"aermola","country_id":"231","latitude":"29.616667","longitude":"79.666664","status":"1","plantocounts":"7","beentocounts":"11","livedcounts":"0"},{"id":"13555","city_name":"\u963f\u5c14\u7a46\u8428\u83f2\u65af","en_name":"Almussafes","pingyin":"aermusafeisi","country_id":"182","latitude":"39.292767","longitude":"-0.413208","status":"1","plantocounts":"0","beentocounts":"1","livedcounts":"0"},{"id":"7255","city_name":"\u963f\u5c14\u8428\u65af","en_name":"Alsace","pingyin":"aersasi","country_id":"186","latitude":"48.318180","longitude":"7.441624","status":"1","plantocounts":"157","beentocounts":"3386","livedcounts":"1"},{"id":"11625","city_name":"\u963f\u5c14\u5c71","en_name":"Aershan","pingyin":"aershan","country_id":"11","latitude":"47.177399","longitude":"119.943535","status":"1","plantocounts":"0","beentocounts":"1","livedcounts":"0"},{"id":"8439","city_name":"\u963f\u5c14\u5854","en_name":"Alta","pingyin":"aerta","country_id":"521","latitude":"69.966667","longitude":"23.241667","status":"1","plantocounts":"50","beentocounts":"130","livedcounts":"1"},{"id":"8209","city_name":"\u963f\u5c14\u6cf0","en_name":"Altai","pingyin":"aertai","country_id":"507","latitude":"46.373512","longitude":"96.255737","status":"1","plantocounts":"45","beentocounts":"62","livedcounts":"0"},{"id":"13556","city_name":"\u963f\u5c14\u5854\u8499\u7279\u65af\u666e\u6797\u65af","en_name":"Altamonte Springs","pingyin":"aertamengtesipulinsi","country_id":"236","latitude":"28.661110","longitude":"-81.365623","status":"1","plantocounts":"1","beentocounts":"1","livedcounts":"0"},{"id":"13557","city_name":"\u963f\u5c14\u7279\u96f7","en_name":"Altlay","pingyin":"aertelei","country_id":"15","latitude":"49.988415","longitude":"7.271721","status":"1","plantocounts":"2","beentocounts":"1","livedcounts":"0"},{"id":"9410","city_name":"\u963f\u5c14\u74e6\u5c14","en_name":"Alwar","pingyin":"aerwaer","country_id":"231","latitude":"27.566668","longitude":"76.599998","status":"1","plantocounts":"14","beentocounts":"22","livedcounts":"0"},{"id":"13558","city_name":"\u963f\u5c14\u624e\u51ef\u7eb3","en_name":"Arzachena","pingyin":"aerzhakaina","country_id":"189","latitude":"41.078011","longitude":"9.390154","status":"1","plantocounts":"0","beentocounts":"1","livedcounts":"0"},{"id":"13560","city_name":"\u963f\u798f\u5c14\u7279\u6069","en_name":"Affoltern","pingyin":"afuerteen","country_id":"524","latitude":"47.277508","longitude":"8.450328","status":"1","plantocounts":"1","beentocounts":"2","livedcounts":"0"},{"id":"13559","city_name":"\u963f\u592b\u6717\u4ec0","en_name":"Avranches","pingyin":"afulangshen","country_id":"186","latitude":"48.686844","longitude":"-1.361660","status":"1","plantocounts":"0","beentocounts":"1","livedcounts":"0"},{"id":"61","city_name":"\u963f\u683c\u62c9","en_name":"Agra ","pingyin":"agela","country_id":"231","latitude":"27.176670","longitude":"78.008072","status":"1","plantocounts":"1507","beentocounts":"6426","livedcounts":"5"},{"id":"9271","city_name":"\u963f\u683c\u91cc\u771f\u6258","en_name":"Agrigento","pingyin":"agelizhentuo","country_id":"189","latitude":"37.316666","longitude":"13.566667","status":"1","plantocounts":"326","beentocounts":"854","livedcounts":"2"},{"id":"15570","city_name":"\u963f\u683c\u7f57\u65af","en_name":"Agros","pingyin":"ageluosi","country_id":"530","latitude":"34.916668","longitude":"33.016666","status":"1","plantocounts":"1","beentocounts":"2","livedcounts":"0"},{"id":"13561","city_name":"\u963f\u8d21\u5f53\u65e5","en_name":"Hagondange","pingyin":"agongdangri","country_id":"186","latitude":"49.254181","longitude":"6.168126","status":"1","plantocounts":"0","beentocounts":"2","livedcounts":"0"},{"id":"6905","city_name":"\u963f\u74dc\u8fea\u4e9a","en_name":"Aguadilla","pingyin":"aguadiya","country_id":"426","latitude":"18.427444","longitude":"-67.154068","status":"1","plantocounts":"17","beentocounts":"58","livedcounts":"0"},{"id":"8300","city_name":"\u963f\u74dc\u65af\u5361\u8fde\u7279\u65af","en_name":"Aguascalientes","pingyin":"aguasikaliantesi","country_id":"515","latitude":"21.883333","longitude":"-102.300003","status":"1","plantocounts":"15","beentocounts":"54","livedcounts":"0"},{"id":"9871","city_name":"\u963f\u54c8\u5c14\u9f50\u8d6b","en_name":"Akhaltsikhe","pingyin":"ahaerqihe","country_id":"457","latitude":"41.638889","longitude":"42.986111","status":"1","plantocounts":"8","beentocounts":"25","livedcounts":"1"},{"id":"15501","city_name":"\u963f\u822a\u683c\u9ed8","en_name":"Ahangama","pingyin":"ahanggemo","country_id":"537","latitude":"5.972490","longitude":"80.364021","status":"1","plantocounts":"6","beentocounts":"2","livedcounts":"0"},{"id":"8522","city_name":"\u963f\u5bd2\u56fd\u7acb\u516c\u56ed","en_name":"Akan national park","pingyin":"ahanguoligongyuan","country_id":"14","latitude":"43.433647","longitude":"144.086700","status":"1","plantocounts":"603","beentocounts":"952","livedcounts":"0"},{"id":"15492","city_name":"\u963f\u6d2a\u52a0\u62c9","en_name":"Ahungalla","pingyin":"ahongjiala","country_id":"537","latitude":"6.313278","longitude":"80.040916","status":"1","plantocounts":"8","beentocounts":"13","livedcounts":"0"},{"id":"13138","city_name":"\u7231\u5965\u90a3\u5c9b","en_name":"Isle of Iona","pingyin":"aiaonadao","country_id":"13","latitude":"56.334728","longitude":"-6.404100","status":"1","plantocounts":"34","beentocounts":"4","livedcounts":"0"},{"id":"7847","city_name":"\u57c3\u8d1d\u8036","en_name":"Ebeye","pingyin":"aibeiye","country_id":"502","latitude":"8.781471","longitude":"167.737335","status":"1","plantocounts":"7","beentocounts":"9","livedcounts":"0"},{"id":"13597","city_name":"\u57c3\u672c\u7459","en_name":"Ebenau","pingyin":"aibennao","country_id":"198","latitude":"47.792004","longitude":"13.174074","status":"1","plantocounts":"3","beentocounts":"1","livedcounts":"0"},{"id":"13598","city_name":"\u57c3\u672c\u56e0\u84ec\u9ad8","en_name":"Eben im Pongau","pingyin":"aibenyinpenggao","country_id":"198","latitude":"47.411263","longitude":"13.394953","status":"1","plantocounts":"1","beentocounts":"2","livedcounts":"0"},{"id":"10176","city_name":"\u57c3\u4f2f\u5c14\u63aa\u592b\u7279","en_name":"Ebeltoft","pingyin":"aiboercuofute","country_id":"205","latitude":"56.196327","longitude":"10.677857","status":"1","plantocounts":"21","beentocounts":"26","livedcounts":"0"},{"id":"7512","city_name":"\u827e\u4f2f\u5854\u7701","en_name":"Alberta","pingyin":"aibotasheng","country_id":"238","latitude":"55.000000","longitude":"-115.000000","status":"1","plantocounts":"65","beentocounts":"2995","livedcounts":"0"},{"id":"7513","city_name":"\u827e\u4f2f\u7279\u4eb2\u738b\u56fd\u5bb6\u516c\u56ed","en_name":"Prince albert national park","pingyin":"aiboteqinwangguojiagongyuan","country_id":"238","latitude":"53.925690","longitude":"-106.388885","status":"1","plantocounts":"1","beentocounts":"8","livedcounts":"0"},{"id":"13630","city_name":"\u827e\u5f7b\u6d1b","en_name":"Eicherloh","pingyin":"aicheluo","country_id":"15","latitude":"48.244152","longitude":"11.778965","status":"1","plantocounts":"2","beentocounts":"0","livedcounts":"0"},{"id":"13641","city_name":"\u7231\u8fbe\u8377\u798f\u5c14\u65af","en_name":"Idaho Falls","pingyin":"aidahefuersi","country_id":"236","latitude":"43.491650","longitude":"-112.033966","status":"1","plantocounts":"5","beentocounts":"139","livedcounts":"0"},{"id":"7877","city_name":"\u7231\u8fbe\u8377\u5dde","en_name":"Idaho","pingyin":"aidahezhou","country_id":"236","latitude":"44.068203","longitude":"-114.742043","status":"1","plantocounts":"16","beentocounts":"263","livedcounts":"0"},{"id":"13599","city_name":"\u57c3\u5fb7","en_name":"Ede","pingyin":"aide","country_id":"200","latitude":"52.040169","longitude":"5.664859","status":"1","plantocounts":"1","beentocounts":"84","livedcounts":"0"},{"id":"8442","city_name":"\u57c3\u5fb7\u5ce1\u6e7e","en_name":"Eidfjord","pingyin":"aidefeiyouer","country_id":"521","latitude":"60.466667","longitude":"7.083333","status":"1","plantocounts":"161","beentocounts":"437","livedcounts":"0"},{"id":"10455","city_name":"\u7231\u5fb7\u534e\u4eb2\u738b\u70b9","en_name":"King Edward Point","pingyin":"aidehuaqinwangdian","country_id":"1762","latitude":"-54.283794","longitude":"-36.496067","status":"1","plantocounts":"24","beentocounts":"35","livedcounts":"0"},{"id":"11216","city_name":"\u7231\u5fb7\u534e\u738b\u5b50\u5c9b","en_name":"Prince Edward Island","pingyin":"aidehuawangzidao","country_id":"238","latitude":"46.250000","longitude":"-63.000000","status":"1","plantocounts":"47","beentocounts":"298","livedcounts":"1"},{"id":"7510","city_name":"\u57c3\u5fb7\u8499\u987f","en_name":"Edmonton","pingyin":"aidemengdun","country_id":"238","latitude":"53.549999","longitude":"-113.500000","status":"1","plantocounts":"153","beentocounts":"1235","livedcounts":"14"},{"id":"13600","city_name":"\u57c3\u5fb7\u8499\u900a","en_name":"Edmundson","pingyin":"aidemengxun","country_id":"236","latitude":"38.735886","longitude":"-90.364006","status":"1","plantocounts":"1","beentocounts":"0","livedcounts":"0"},{"id":"8903","city_name":"\u57c3\u8fea\u5c14\u5185","en_name":"Edirne","pingyin":"aidiernei","country_id":"195","latitude":"41.681808","longitude":"26.562269","status":"1","plantocounts":"90","beentocounts":"110","livedcounts":"1"},{"id":"8755","city_name":"\u7231\u4e01\u5821","en_name":"Edinburgh","pingyin":"aidingbao","country_id":"13","latitude":"55.953251","longitude":"-3.188267","status":"1","plantocounts":"5563","beentocounts":"20679","livedcounts":"121"},{"id":"6405","city_name":"\u827e\u6069","en_name":"Al ain","pingyin":"aien","country_id":"402","latitude":"24.191668","longitude":"55.760555","status":"1","plantocounts":"12","beentocounts":"285","livedcounts":"0"},{"id":"9547","city_name":"\u827e\u6069\u5e03\u91cc\u5947\u5ce1","en_name":"Ironbridge gorge","pingyin":"aienbuliqixia","country_id":"13","latitude":"52.638397","longitude":"-2.495232","status":"1","plantocounts":"8","beentocounts":"21","livedcounts":"0"},{"id":"13631","city_name":"\u827e\u6069\u7075","en_name":"Ainring","pingyin":"aienling","country_id":"15","latitude":"47.813480","longitude":"12.942038","status":"1","plantocounts":"0","beentocounts":"0","livedcounts":"0"},{"id":"8753","city_name":"\u827e\u5c14","en_name":"Ayr","pingyin":"aier","country_id":"13","latitude":"55.450001","longitude":"-4.616667","status":"1","plantocounts":"67","beentocounts":"92","livedcounts":"0"},{"id":"8934","city_name":"\u57c3\u5c14\u57c3\u65af\u6258\u5c14","en_name":"El estor","pingyin":"aieraisituoer","country_id":"555","latitude":"15.533333","longitude":"-89.349998","status":"1","plantocounts":"3","beentocounts":"10","livedcounts":"0"},{"id":"13601","city_name":"\u57c3\u5c14\u963f\u96f7\u7eb3\u5c14","en_name":"El Arenal","pingyin":"aieraleinaer","country_id":"182","latitude":"40.266899","longitude":"-5.085248","status":"1","plantocounts":"121","beentocounts":"5","livedcounts":"0"},{"id":"9277","city_name":"\u57c3\u5c14\u5df4","en_name":"Elba","pingyin":"aierba","country_id":"189","latitude":"42.778187","longitude":"10.192739","status":"1","plantocounts":"24","beentocounts":"69","livedcounts":"0"},{"id":"13136","city_name":"\u827e\u5c14\u534a\u5c9b","en_name":"Eyre Peninsula","pingyin":"aierbandao","country_id":"240","latitude":"-34.333332","longitude":"135.750000","status":"1","plantocounts":"10","beentocounts":"7","livedcounts":"0"},{"id":"6795","city_name":"\u57c3\u5c14\u5df4\u8036","en_name":"El valle","pingyin":"aierbaye","country_id":"417","latitude":"8.604101","longitude":"-80.131844","status":"1","plantocounts":"4","beentocounts":"9","livedcounts":"0"},{"id":"13602","city_name":"\u57c3\u5c14\u4e01","en_name":"Erding","pingyin":"aierding","country_id":"15","latitude":"48.311466","longitude":"11.918876","status":"1","plantocounts":"3","beentocounts":"32","livedcounts":"0"},{"id":"7711","city_name":"\u57c3\u5c14\u591a\u96f7\u7279","en_name":"Eldoret","pingyin":"aierduoleite","country_id":"483","latitude":"0.516667","longitude":"35.283333","status":"1","plantocounts":"21","beentocounts":"27","livedcounts":"1"},{"id":"7022","city_name":"\u7231\u5c14\u798f\u7279","en_name":"Erfurt","pingyin":"aierfute","country_id":"15","latitude":"50.983334","longitude":"11.033333","status":"1","plantocounts":"59","beentocounts":"710","livedcounts":"3"},{"id":"13603","city_name":"\u57c3\u5c14\u54e5\u8328\u62c9","en_name":"Il-G\u017cira","pingyin":"aiergecila","country_id":"498","latitude":"35.905895","longitude":"14.495334","status":"1","plantocounts":"8","beentocounts":"68","livedcounts":"0"},{"id":"10947","city_name":"\u57c3\u5c14\u8d21\u5c71\u56fd\u5bb6\u516c\u56ed","en_name":"Mt Elgon National Park","pingyin":"aiergongshanguojiagongyuan","country_id":"483","latitude":"1.133333","longitude":"34.700001","status":"1","plantocounts":"64","beentocounts":"30","livedcounts":"0"},{"id":"6401","city_name":"\u57c3\u5c14\u5361\u62c9\u6cd5\u7279","en_name":"El calafate","pingyin":"aierkalafate","country_id":"243","latitude":"-50.333332","longitude":"-72.300003","status":"1","plantocounts":"189","beentocounts":"538","livedcounts":"0"},{"id":"11507","city_name":"\u57c3\u5c14\u79d1","en_name":"Elko","pingyin":"aierke","country_id":"236","latitude":"40.832420","longitude":"-115.763123","status":"1","plantocounts":"3","beentocounts":"94","livedcounts":"0"},{"id":"10850","city_name":"\u57c3\u5c14\u514b\u592b","en_name":"El Kef","pingyin":"aierkefu","country_id":"550","latitude":"36.179272","longitude":"8.714140","status":"1","plantocounts":"7","beentocounts":"21","livedcounts":"0"},{"id":"13632","city_name":"\u827e\u5c14\u514b\u683c\u7f57\u592b\u6751","en_name":"Elk Grove Village","pingyin":"aierkegeluofucun","country_id":"236","latitude":"38.408798","longitude":"-121.371620","status":"1","plantocounts":"0","beentocounts":"3","livedcounts":"0"},{"id":"15811","city_name":"\u57c3\u5c14\u5170\u6839","en_name":"Erlangen","pingyin":"aierlangen","country_id":"15","latitude":"49.589676","longitude":"11.011961","status":"1","plantocounts":"6","beentocounts":"114","livedcounts":"1"},{"id":"6719","city_name":"\u827e\u5c14\u5229\u6d77\u6ee9","en_name":"Airlie beach","pingyin":"aierlihaitan","country_id":"240","latitude":"-20.268721","longitude":"148.718460","status":"1","plantocounts":"842","beentocounts":"2027","livedcounts":"6"},{"id":"13604","city_name":"\u57c3\u5c14\u6bdb","en_name":"Ellmau","pingyin":"aiermao","country_id":"198","latitude":"47.514786","longitude":"12.302258","status":"1","plantocounts":"6","beentocounts":"32","livedcounts":"0"},{"id":"10758","city_name":"\u827e\u5c14\u7c73\u62c9\u591a","en_name":"El Mirador","pingyin":"aiermiladuo","country_id":"555","latitude":"17.754713","longitude":"-89.922516","status":"1","plantocounts":"1","beentocounts":"4","livedcounts":"0"},{"id":"13605","city_name":"\u57c3\u5c14\u59c6\u8fb9\u7684\u5b54\u5b81\u65af\u8def\u7279","en_name":"K\u00f6nigslutter am Elm","pingyin":"aiermubiandekongningsilute","country_id":"15","latitude":"52.251858","longitude":"10.814355","status":"1","plantocounts":"1","beentocounts":"2","livedcounts":"0"},{"id":"7259","city_name":"\u7231\u59ae\u5c9b","en_name":"El nido","pingyin":"aierniduo","country_id":"446","latitude":"11.185833","longitude":"119.395554","status":"1","plantocounts":"503","beentocounts":"1228","livedcounts":"0"},{"id":"7875","city_name":"\u57c3\u5c14\u5e15\u7d22","en_name":"El paso","pingyin":"aierpasuo","country_id":"236","latitude":"31.758720","longitude":"-106.486931","status":"1","plantocounts":"5","beentocounts":"52","livedcounts":"0"},{"id":"6402","city_name":"\u827e\u5c14\u6070\u767b","en_name":"El chalten","pingyin":"aierqiadeng","country_id":"243","latitude":"-49.331493","longitude":"-72.886322","status":"1","plantocounts":"48","beentocounts":"176","livedcounts":"0"},{"id":"13606","city_name":"\u57c3\u5c14\u5207","en_name":"Elche","pingyin":"aierqie","country_id":"182","latitude":"38.269932","longitude":"-0.712561","status":"1","plantocounts":"1","beentocounts":"39","livedcounts":"0"},{"id":"13607","city_name":"\u57c3\u5c14\u8428\u8c37\u53e3\u6751","en_name":"Colle Val D'Elsa","pingyin":"aiersagukoucun","country_id":"189","latitude":"43.419964","longitude":"11.127206","status":"1","plantocounts":"1","beentocounts":"17","livedcounts":"0"},{"id":"13608","city_name":"\u57c3\u5c14\u585e\u8d21\u591a","en_name":"El Segundo","pingyin":"aiersaigongduo","country_id":"236","latitude":"33.919182","longitude":"-118.416466","status":"1","plantocounts":"0","beentocounts":"22","livedcounts":"0"},{"id":"13609","city_name":"\u57c3\u5c14\u68ee\u6c49\u59c6","en_name":"Elsenham","pingyin":"aiersenhanmu","country_id":"13","latitude":"51.914459","longitude":"0.237391","status":"1","plantocounts":"0","beentocounts":"0","livedcounts":"0"},{"id":"13396","city_name":"\u57c3\u5c14\u7279\u59c6","en_name":"Eltham","pingyin":"aiertemu","country_id":"240","latitude":"-39.430462","longitude":"174.299347","status":"1","plantocounts":"1","beentocounts":"3","livedcounts":"0"},{"id":"13610","city_name":"\u57c3\u5c14\u7279\u7ef4\u52d2","en_name":"Eltville","pingyin":"aierteweile","country_id":"15","latitude":"50.028973","longitude":"8.119173","status":"1","plantocounts":"1","beentocounts":"5","livedcounts":"0"},{"id":"8904","city_name":"\u57c3\u5c14\u7956\u9c81\u59c6","en_name":"Erzurum","pingyin":"aierzulumu","country_id":"195","latitude":"39.908611","longitude":"41.276943","status":"1","plantocounts":"21","beentocounts":"114","livedcounts":"0"},{"id":"13611","city_name":"\u57c3\u5f17\u91cc\u7279","en_name":"Everett","pingyin":"aifulite","country_id":"236","latitude":"47.978985","longitude":"-122.202080","status":"1","plantocounts":"2","beentocounts":"14","livedcounts":"0"},{"id":"9178","city_name":"\u57c3\u683c\u5c14","en_name":"Eger","pingyin":"aigeer","country_id":"207","latitude":"47.900002","longitude":"20.383333","status":"1","plantocounts":"66","beentocounts":"248","livedcounts":"0"},{"id":"13633","city_name":"\u827e\u683c\u7075","en_name":"Egling","pingyin":"aigeling","country_id":"15","latitude":"47.922901","longitude":"11.507708","status":"1","plantocounts":"0","beentocounts":"0","livedcounts":"0"},{"id":"13612","city_name":"\u57c3\u683c\u59c6","en_name":"Egham","pingyin":"aigemu","country_id":"13","latitude":"51.428825","longitude":"-0.547876","status":"1","plantocounts":"0","beentocounts":"23","livedcounts":"0"},{"id":"10231","city_name":"\u827e\u54c8\u8fc8\u8fbe\u5df4\u5fb7","en_name":"Ahmedabad","pingyin":"aihamaidabade","country_id":"231","latitude":"23.039568","longitude":"72.566002","status":"1","plantocounts":"69","beentocounts":"282","livedcounts":"0"},{"id":"7876","city_name":"\u7231\u8377\u534e\u5dde","en_name":"Iowa","pingyin":"aihehuazhou","country_id":"236","latitude":"41.878002","longitude":"-93.097702","status":"1","plantocounts":"22","beentocounts":"175","livedcounts":"10"},{"id":"6594","city_name":"\u57c3\u514b\u5c14\u65af\u5c71\u56fd\u5bb6\u516c\u56ed","en_name":"Mt eccles national park","pingyin":"aikeersishanguojiagongyuan","country_id":"240","latitude":"-38.084469","longitude":"141.905121","status":"1","plantocounts":"78","beentocounts":"103","livedcounts":"0"},{"id":"13614","city_name":"\u57c3\u514b\u62c9\u7279","en_name":"Erkrath","pingyin":"aikelate","country_id":"15","latitude":"51.221313","longitude":"6.907347","status":"1","plantocounts":"1","beentocounts":"3","livedcounts":"0"},{"id":"13613","city_name":"\u57c3\u79d1\u52d2","en_name":"\u00c9cole","pingyin":"aikele","country_id":"186","latitude":"43.440956","longitude":"-0.586488","status":"1","plantocounts":"0","beentocounts":"1","livedcounts":"0"},{"id":"9544","city_name":"\u57c3\u514b\u585e\u7279","en_name":"Exeter","pingyin":"aikesaite","country_id":"13","latitude":"50.700001","longitude":"-3.533333","status":"1","plantocounts":"50","beentocounts":"879","livedcounts":"12"},{"id":"10148","city_name":"\u827e\u514b\u65af","en_name":"Aix en Provence","pingyin":"aikesi","country_id":"186","latitude":"43.529743","longitude":"5.447427","status":"1","plantocounts":"415","beentocounts":"3068","livedcounts":"17"},{"id":"13615","city_name":"\u57c3\u514b\u65af\u987f","en_name":"Exton","pingyin":"aikesidun","country_id":"236","latitude":"40.032581","longitude":"-75.627457","status":"1","plantocounts":"0","beentocounts":"0","livedcounts":"0"},{"id":"13634","city_name":"\u827e\u514b\u65af\u83b1\u73ed","en_name":"Aix-les-Bains","pingyin":"aikesilaiban","country_id":"186","latitude":"45.692341","longitude":"5.908998","status":"1","plantocounts":"1","beentocounts":"61","livedcounts":"0"},{"id":"6595","city_name":"\u57c3\u514b\u65af\u8305\u65af","en_name":"Exmouth","pingyin":"aikesimaosi","country_id":"240","latitude":"-21.933332","longitude":"114.133331","status":"1","plantocounts":"28","beentocounts":"106","livedcounts":"0"},{"id":"9545","city_name":"\u57c3\u514b\u65af\u7a46\u5c14\u56fd\u5bb6\u516c\u56ed","en_name":"Exmoor national park","pingyin":"aikesimuerguojiagongyuan","country_id":"13","latitude":"51.165882","longitude":"-3.604978","status":"1","plantocounts":"11","beentocounts":"18","livedcounts":"0"},{"id":"10413","city_name":"\u57c3\u514b\u82cf\u9a6c\u5c9b","en_name":"Exuma","pingyin":"aikesumadao","country_id":"413","latitude":"23.619261","longitude":"-75.969543","status":"1","plantocounts":"59","beentocounts":"41","livedcounts":"1"},{"id":"8700","city_name":"\u57c3\u52d2","en_name":"Ella","pingyin":"aila","country_id":"537","latitude":"6.873760","longitude":"81.049026","status":"1","plantocounts":"716","beentocounts":"4975","livedcounts":"0"},{"id":"11452","city_name":"\u827e\u83b1\u5c9b","en_name":"Islay","pingyin":"ailaidao","country_id":"13","latitude":"55.736252","longitude":"-6.177067","status":"1","plantocounts":"5","beentocounts":"15","livedcounts":"0"},{"id":"10596","city_name":"\u57c3\u62c9\u7279","en_name":"Eilat","pingyin":"ailate","country_id":"569","latitude":"29.557669","longitude":"34.951923","status":"1","plantocounts":"91","beentocounts":"573","livedcounts":"0"},{"id":"15851","city_name":"\u57c3\u62c9\u8036\u6c83\u5965\u5c14","en_name":"Elayavur","pingyin":"ailayewoaoer","country_id":"231","latitude":"11.882175","longitude":"75.401764","status":"1","plantocounts":"0","beentocounts":"1","livedcounts":"0"},{"id":"15879","city_name":"\u57c3\u62c9\u6cfd","en_name":"El\u00e2z\u0131\u011f","pingyin":"ailaze","country_id":"195","latitude":"38.676823","longitude":"39.236382","status":"1","plantocounts":"2","beentocounts":"2","livedcounts":"0"},{"id":"7356","city_name":"\u57c3\u96f7\u8fea\u4e9a","en_name":"Heredia","pingyin":"aileidiya","country_id":"454","latitude":"10.000000","longitude":"-84.116669","status":"1","plantocounts":"15","beentocounts":"41","livedcounts":"0"},{"id":"13616","city_name":"\u57c3\u96f7\u7279\u91cc\u4e9a","en_name":"Eretria","pingyin":"aileiteliya","country_id":"206","latitude":"38.419201","longitude":"23.882269","status":"1","plantocounts":"2","beentocounts":"2","livedcounts":"0"},{"id":"10884","city_name":"\u57c3\u91cc\u8fea\u5c14","en_name":"E\u011firdir","pingyin":"ailidier","country_id":"195","latitude":"37.874416","longitude":"30.836973","status":"1","plantocounts":"13","beentocounts":"31","livedcounts":"0"},{"id":"9278","city_name":"\u57c3\u91cc\u585e","en_name":"Erice","pingyin":"ailisai","country_id":"189","latitude":"38.033333","longitude":"12.583333","status":"1","plantocounts":"7","beentocounts":"33","livedcounts":"0"},{"id":"6596","city_name":"\u7231\u4e3d\u65af\u6cc9","en_name":"Alice springs","pingyin":"ailisiquan","country_id":"240","latitude":"-23.700211","longitude":"133.880615","status":"1","plantocounts":"191","beentocounts":"1063","livedcounts":"0"},{"id":"10382","city_name":"\u57c3\u5229\u65af\u5854","en_name":"Elista","pingyin":"ailisita","country_id":"208","latitude":"46.308502","longitude":"44.254295","status":"1","plantocounts":"6","beentocounts":"19","livedcounts":"0"},{"id":"9227","city_name":"\u57c3\u91cc\u6e29","en_name":"Yerevan","pingyin":"ailiwen","country_id":"566","latitude":"40.181110","longitude":"44.513611","status":"1","plantocounts":"102","beentocounts":"411","livedcounts":"1"},{"id":"10228","city_name":"\u57c3\u6d1b\u62c9","en_name":"Ellora","pingyin":"ailuola","country_id":"231","latitude":"20.023825","longitude":"75.161835","status":"1","plantocounts":"33","beentocounts":"247","livedcounts":"1"},{"id":"13635","city_name":"\u827e\u739b\u5409\u65af","en_name":"Aimargues","pingyin":"aimajisi","country_id":"186","latitude":"43.685081","longitude":"4.208849","status":"1","plantocounts":"0","beentocounts":"1","livedcounts":"0"},{"id":"13636","city_name":"\u827e\u6e44\u6e7e","en_name":"Amed","pingyin":"aimeiwan","country_id":"570","latitude":"-8.324584","longitude":"115.648018","status":"1","plantocounts":"3","beentocounts":"23","livedcounts":"0"},{"id":"11318","city_name":"\u7231\u8499\u5854\u5c14","en_name":"Emmental","pingyin":"aimengtaer","country_id":"524","latitude":"46.984638","longitude":"7.762380","status":"1","plantocounts":"64","beentocounts":"174","livedcounts":"0"},{"id":"13241","city_name":"\u827e\u7c73\u5229\u4e9a-\u7f57\u9a6c\u6d85\u5927\u533a","en_name":"Emilia-Romagna","pingyin":"aimiliyaluomaniedaqu","country_id":"189","latitude":"44.596760","longitude":"11.218640","status":"1","plantocounts":"66","beentocounts":"3628","livedcounts":"0"},{"id":"13617","city_name":"\u57c3\u9ed8\u91cc\u7ef4\u5c14","en_name":"Emeryville","pingyin":"aimoliweier","country_id":"236","latitude":"37.831318","longitude":"-122.285248","status":"1","plantocounts":"1","beentocounts":"14","livedcounts":"0"},{"id":"8302","city_name":"\u57c3\u83ab\u897f\u7ea6","en_name":"Hermosillo","pingyin":"aimoxiyue","country_id":"515","latitude":"29.089186","longitude":"-110.961327","status":"1","plantocounts":"4","beentocounts":"30","livedcounts":"1"},{"id":"13618","city_name":"\u57c3\u59c6\u65af\u4f2f\u91cc","en_name":"Amesbury,UK","pingyin":"aimusiboli","country_id":"13","latitude":"51.167919","longitude":"-1.762978","status":"1","plantocounts":"2","beentocounts":"1","livedcounts":"0"},{"id":"11418","city_name":"\u57c3\u7eb3\u96f7\u65af\u5821","en_name":"Alcal\u00e1 de Henares","pingyin":"ainaleisibao","country_id":"182","latitude":"40.481979","longitude":"-3.363542","status":"1","plantocounts":"21","beentocounts":"230","livedcounts":"4"},{"id":"13619","city_name":"\u57c3\u8bb7\u5b89","en_name":"Ehnen","pingyin":"ainean","country_id":"493","latitude":"49.601112","longitude":"6.387264","status":"1","plantocounts":"0","beentocounts":"8","livedcounts":"0"},{"id":"13038","city_name":"\u57c3\u4f69\u5c14\u5948","en_name":"\u00c9pernay","pingyin":"aipeiernai","country_id":"186","latitude":"49.043411","longitude":"3.956242","status":"1","plantocounts":"14","beentocounts":"72","livedcounts":"0"},{"id":"11238","city_name":"\u57c3\u76ae\u8fbe\u9c81\u65af","en_name":"Epidaurus","pingyin":"aipidalusi","country_id":"206","latitude":"37.637489","longitude":"23.155804","status":"1","plantocounts":"20","beentocounts":"107","livedcounts":"0"},{"id":"8929","city_name":"\u57c3\u76ae\u5c9b","en_name":"Epi","pingyin":"aipidao","country_id":"554","latitude":"-16.741098","longitude":"168.270401","status":"1","plantocounts":"10","beentocounts":"17","livedcounts":"0"},{"id":"13620","city_name":"\u57c3\u76ae\u7eb3\u52d2","en_name":"\u00c9pinal","pingyin":"aipinale","country_id":"186","latitude":"48.172401","longitude":"6.449403","status":"1","plantocounts":"1","beentocounts":"6","livedcounts":"0"},{"id":"13621","city_name":"\u57c3\u666e\u62c9\u7279\u7ea6\u5e03\u91cc\u52a0","en_name":"El Prat de Llobregat","pingyin":"aipulateyuebulijia","country_id":"182","latitude":"41.324596","longitude":"2.093490","status":"1","plantocounts":"0","beentocounts":"15","livedcounts":"0"},{"id":"10806","city_name":"\u57c3\u5947\u7c73\u4e9a\u6d25","en_name":"Echmiadzin","pingyin":"aiqimiyajin","country_id":"566","latitude":"40.172779","longitude":"44.292500","status":"1","plantocounts":"23","beentocounts":"164","livedcounts":"0"},{"id":"13637","city_name":"\u827e\u7434\u5821","en_name":"Eichenberg","pingyin":"aiqinbao","country_id":"198","latitude":"47.534985","longitude":"9.778482","status":"1","plantocounts":"0","beentocounts":"2","livedcounts":"0"},{"id":"13623","city_name":"\u57c3\u9752","en_name":"Eching","pingyin":"aiqing","country_id":"15","latitude":"48.298378","longitude":"11.621206","status":"1","plantocounts":"0","beentocounts":"9","livedcounts":"0"},{"id":"13622","city_name":"\u57c3\u5947\u97e6\u5c14","en_name":"Edgware","pingyin":"aiqiweier","country_id":"13","latitude":"51.615788","longitude":"-0.262034","status":"1","plantocounts":"0","beentocounts":"5","livedcounts":"0"},{"id":"13342","city_name":"Aireys Inlet","en_name":"Aireys Inlet","pingyin":"Aireys Inlet","country_id":"240","latitude":"-38.457088","longitude":"144.107208","status":"1","plantocounts":"12","beentocounts":"31","livedcounts":"1"},{"id":"7021","city_name":"\u57c3\u68ee","en_name":"Essen","pingyin":"aisen","country_id":"15","latitude":"51.454327","longitude":"7.004802","status":"1","plantocounts":"219","beentocounts":"2555","livedcounts":"25"},{"id":"10682","city_name":"\u827e\u68ee\u7eb3\u8d6b","en_name":"Eisenach","pingyin":"aisennahe","country_id":"15","latitude":"50.980255","longitude":"10.315619","status":"1","plantocounts":"27","beentocounts":"189","livedcounts":"1"},{"id":"6534","city_name":"\u827e\u68ee\u65bd\u5854\u7279","en_name":"Eisenstadt","pingyin":"aisenshitate","country_id":"198","latitude":"47.849998","longitude":"16.516666","status":"1","plantocounts":"58","beentocounts":"380","livedcounts":"1"},{"id":"13624","city_name":"\u57c3\u65bd\u4f2f\u6069","en_name":"Eschborn","pingyin":"aishiboen","country_id":"15","latitude":"50.146748","longitude":"8.561455","status":"1","plantocounts":"2","beentocounts":"15","livedcounts":"0"},{"id":"7006","city_name":"\u57c3\u65af\u6bd4\u7ea6","en_name":"Esbjerg","pingyin":"aisibiyue","country_id":"205","latitude":"55.466667","longitude":"8.450000","status":"1","plantocounts":"14","beentocounts":"105","livedcounts":"2"},{"id":"13625","city_name":"\u57c3\u65af\u6ce2","en_name":"Espoo","pingyin":"aisibo","country_id":"448","latitude":"60.205490","longitude":"24.655899","status":"1","plantocounts":"15","beentocounts":"105","livedcounts":"1"},{"id":"8936","city_name":"\u57c3\u65af\u57fa\u666e\u62c9\u65af","en_name":"Esquipulas","pingyin":"aisijipulasi","country_id":"555","latitude":"14.566667","longitude":"-89.349998","status":"1","plantocounts":"0","beentocounts":"4","livedcounts":"0"},{"id":"10883","city_name":"\u57c3\u65af\u57fa\u8c22\u5e0c\u5c14","en_name":"Eski\u015fehir","pingyin":"aisijixiexier","country_id":"195","latitude":"39.776669","longitude":"30.520555","status":"1","plantocounts":"7","beentocounts":"59","livedcounts":"0"},{"id":"6347","city_name":"\u57c3\u65af\u514b\u5c14","en_name":"Esquel","pingyin":"aisikeer","country_id":"243","latitude":"-42.900002","longitude":"-71.316666","status":"1","plantocounts":"5","beentocounts":"12","livedcounts":"0"},{"id":"13626","city_name":"\u57c3\u65af\u5b54\u8fea\u591a","en_name":"Escondido","pingyin":"aisikongdiduo","country_id":"236","latitude":"33.119205","longitude":"-117.086418","status":"1","plantocounts":"2","beentocounts":"7","livedcounts":"0"},{"id":"8303","city_name":"\u57c3\u65af\u5b54\u8fea\u591a\u6e2f","en_name":"Puerto escondido","pingyin":"aisikongdiduogang","country_id":"515","latitude":"15.865535","longitude":"-97.069450","status":"1","plantocounts":"2","beentocounts":"32","livedcounts":"0"},{"id":"13627","city_name":"\u57c3\u65af\u6797\u6839","en_name":"Esslingen","pingyin":"aisilingen","country_id":"15","latitude":"48.743343","longitude":"9.320112","status":"1","plantocounts":"12","beentocounts":"101","livedcounts":"0"},{"id":"7171","city_name":"\u57c3\u65af\u6885\u62c9\u8fbe\u65af","en_name":"Esmeraldas","pingyin":"aisimeiladasi","country_id":"443","latitude":"0.950000","longitude":"-79.666664","status":"1","plantocounts":"3","beentocounts":"24","livedcounts":"0"},{"id":"15710","city_name":"\u57c3\u65af\u5e15\u5c3c\u5965\u62c9","en_name":"Espa\u00f1ola NM","pingyin":"aisipaniaola","country_id":"236","latitude":"35.991039","longitude":"-106.081825","status":"1","plantocounts":"0","beentocounts":"1","livedcounts":"0"},{"id":"10302","city_name":"\u57c3\u65af\u4f69\u5170\u65af","en_name":"Esperance","pingyin":"aisipeilansi","country_id":"240","latitude":"-33.859413","longitude":"121.893250","status":"1","plantocounts":"14","beentocounts":"57","livedcounts":"0"},{"id":"9179","city_name":"\u57c3\u65af\u6cf0\u5c14\u6208\u59c6","en_name":"Esztergom","pingyin":"aisitaiergemu","country_id":"207","latitude":"47.799999","longitude":"18.750000","status":"1","plantocounts":"33","beentocounts":"207","livedcounts":"0"},{"id":"9000","city_name":"\u57c3\u65af\u7279\u89d2\u57ce","en_name":"Punta del este","pingyin":"aisitejiaocheng","country_id":"561","latitude":"-34.966667","longitude":"-54.950001","status":"1","plantocounts":"18","beentocounts":"84","livedcounts":"0"},{"id":"9069","city_name":"\u57c3\u65af\u7279\u96f7\u9a6c\u675c\u62c9","en_name":"Extremadura","pingyin":"aisiteleimadula","country_id":"182","latitude":"39.493740","longitude":"-6.067919","status":"1","plantocounts":"1","beentocounts":"231","livedcounts":"1"},{"id":"10766","city_name":"\u57c3\u65af\u7279\u5229","en_name":"Esteli","pingyin":"aisiteli","country_id":"518","latitude":"13.086760","longitude":"-86.355499","status":"1","plantocounts":"2","beentocounts":"6","livedcounts":"0"},{"id":"13628","city_name":"\u57c3\u65af\u6258\u5229\u5c14","en_name":"Estoril","pingyin":"aisituolier","country_id":"523","latitude":"38.713314","longitude":"-9.393656","status":"1","plantocounts":"8","beentocounts":"32","livedcounts":"0"},{"id":"13046","city_name":"\u57c3\u7d22","en_name":"Esso","pingyin":"aisuo","country_id":"208","latitude":"55.921097","longitude":"158.709610","status":"1","plantocounts":"6","beentocounts":"3","livedcounts":"0"},{"id":"13300","city_name":"\u57c3\u5510\u8428\u83b1","en_name":"\u00c9tang-Sal\u00e9","pingyin":"aitangsalai","country_id":"492","latitude":"-21.272877","longitude":"55.347691","status":"1","plantocounts":"3","beentocounts":"6","livedcounts":"0"},{"id":"6739","city_name":"\u827e\u5854\u4f69","en_name":"Aitape","pingyin":"aitapei","country_id":"412","latitude":"-3.133333","longitude":"142.350006","status":"1","plantocounts":"2","beentocounts":"2","livedcounts":"0"},{"id":"13629","city_name":"\u57c3\u7279\u96f7\u52d2","en_name":"\u00c9trelles","pingyin":"aiteleile","country_id":"186","latitude":"48.060120","longitude":"-1.194125","status":"1","plantocounts":"1","beentocounts":"0","livedcounts":"0"},{"id":"10005","city_name":"\u57c3\u7279\u52d2\u5854","en_name":"Etretat","pingyin":"aiteleta","country_id":"186","latitude":"49.707199","longitude":"0.207500","status":"1","plantocounts":"167","beentocounts":"827","livedcounts":"0"},{"id":"13639","city_name":"\u827e\u6c40","en_name":"Eitting","pingyin":"aiting","country_id":"15","latitude":"48.359592","longitude":"11.890961","status":"1","plantocounts":"1","beentocounts":"0","livedcounts":"0"},{"id":"8390","city_name":"\u57c3\u6258\u6c99\u56fd\u5bb6\u516c\u56ed","en_name":"Etosha national park","pingyin":"aituoshaguojiagongyuan","country_id":"516","latitude":"-19.018917","longitude":"16.346378","status":"1","plantocounts":"68","beentocounts":"144","livedcounts":"0"},{"id":"10542","city_name":"\u827e\u56fe\u5854\u57fa","en_name":"Aitutaki","pingyin":"aitutaji","country_id":"484","latitude":"-18.849115","longitude":"-159.782303","status":"1","plantocounts":"65","beentocounts":"55","livedcounts":"0"},{"id":"10537","city_name":"\u57c3\u74e6\u5c9b","en_name":"Eua Island","pingyin":"aiwadao","country_id":"547","latitude":"-21.386974","longitude":"-174.929718","status":"1","plantocounts":"8","beentocounts":"9","livedcounts":"0"},{"id":"13234","city_name":"\u57c3\u7ef4\u4e9a\u5c9b","en_name":"Euboea","pingyin":"aiweiyadao","country_id":"206","latitude":"38.523605","longitude":"23.858475","status":"1","plantocounts":"0","beentocounts":"2","livedcounts":"0"},{"id":"10236","city_name":"\u57c3\u6b66\u62c9","en_name":"Evora","pingyin":"aiwula","country_id":"523","latitude":"38.571430","longitude":"-7.913502","status":"1","plantocounts":"90","beentocounts":"574","livedcounts":"0"},{"id":"8283","city_name":"\u827e\u897f\u62c9","en_name":"Asilah","pingyin":"aixila","country_id":"513","latitude":"35.465557","longitude":"-6.040278","status":"1","plantocounts":"87","beentocounts":"228","livedcounts":"0"},{"id":"15420","city_name":"\u827e\u5e0c\u62c9","en_name":"Assilah","pingyin":"aixila","country_id":"513","latitude":"35.470001","longitude":"-6.030000","status":"1","plantocounts":"4","beentocounts":"44","livedcounts":"0"},{"id":"7752","city_name":"\u57c3\u5e0c\u7279\u7eb3\u8d6b","en_name":"Echternach","pingyin":"aixitenahe","country_id":"493","latitude":"49.805557","longitude":"6.422222","status":"1","plantocounts":"51","beentocounts":"229","livedcounts":"0"},{"id":"10966","city_name":"\u57c3\u4f0a\u5c14\u65af\u5854\u6d4e","en_name":"Egilssta\u00f0ir","pingyin":"aiyiersitaji","country_id":"425","latitude":"65.266876","longitude":"-14.394847","status":"1","plantocounts":"220","beentocounts":"473","livedcounts":"0"},{"id":"10788","city_name":"\u827e\u56e0\u76d6\u8fea","en_name":"Ein Gedi","pingyin":"aiyingaidi","country_id":"569","latitude":"31.451191","longitude":"35.383572","status":"1","plantocounts":"15","beentocounts":"164","livedcounts":"0"},{"id":"10127","city_name":"\u57c3\u56e0\u970d\u6e29","en_name":"Eindhoven","pingyin":"aiyinhuowen","country_id":"200","latitude":"51.441643","longitude":"5.469722","status":"1","plantocounts":"171","beentocounts":"2065","livedcounts":"8"},{"id":"13640","city_name":"\u827e\u56e0\u897f\u5fb7\u4f26","en_name":"Einsiedeln","pingyin":"aiyinxidelun","country_id":"524","latitude":"47.128117","longitude":"8.744269","status":"1","plantocounts":"0","beentocounts":"3","livedcounts":"0"},{"id":"11350","city_name":"\u7231\u5a9b\u53bf","en_name":"Ehime-ken","pingyin":"aiyuan","country_id":"14","latitude":"33.830788","longitude":"132.771866","status":"1","plantocounts":"36","beentocounts":"288","livedcounts":"0"},{"id":"8446","city_name":"\u827e\u4e8e\u5170","en_name":"Aurland","pingyin":"aiyulan","country_id":"521","latitude":"60.903568","longitude":"7.201723","status":"1","plantocounts":"96","beentocounts":"726","livedcounts":"0"},{"id":"13048","city_name":"\u7231\u77e5\u53bf","en_name":"Aichi-ken","pingyin":"aizhixian","country_id":"14","latitude":"35.180187","longitude":"136.906570","status":"1","plantocounts":"40","beentocounts":"7466","livedcounts":"2"},{"id":"10075","city_name":"\u57c3\u5179","en_name":"\u00c9ze","pingyin":"aizi","country_id":"186","latitude":"43.727818","longitude":"7.361792","status":"1","plantocounts":"572","beentocounts":"3991","livedcounts":"1"},{"id":"15754","city_name":"\u963f\u5609\u5c9b","en_name":"Akajima","pingyin":"ajiadao","country_id":"14","latitude":"26.199203","longitude":"127.278465","status":"1","plantocounts":"4","beentocounts":"6","livedcounts":"0"},{"id":"8431","city_name":"\u963f\u52a0\u5fb7\u5179","en_name":"Agadez","pingyin":"ajiadezi","country_id":"519","latitude":"16.973888","longitude":"7.990833","status":"1","plantocounts":"0","beentocounts":"14","livedcounts":"0"},{"id":"8282","city_name":"\u963f\u52a0\u8fea\u5c14","en_name":"Agadir","pingyin":"ajiadier","country_id":"513","latitude":"30.400000","longitude":"-9.600000","status":"1","plantocounts":"49","beentocounts":"144","livedcounts":"0"},{"id":"7380","city_name":"\u5df4\u7edf","en_name":"Batumi","pingyin":"ajiala","country_id":"457","latitude":"41.638611","longitude":"41.637222","status":"1","plantocounts":"55","beentocounts":"266","livedcounts":"0"},{"id":"13562","city_name":"\u963f\u57fa\u963f\u5a46\u65af\u6258\u91cc","en_name":"Aghii Apostoli","pingyin":"ajiaposituoli","country_id":"206","latitude":"35.323853","longitude":"23.748589","status":"1","plantocounts":"1","beentocounts":"2","livedcounts":"0"},{"id":"9411","city_name":"\u963f\u6770\u6885\u5c14","en_name":"Ajmer","pingyin":"ajiemeier","country_id":"231","latitude":"26.450001","longitude":"74.633331","status":"1","plantocounts":"41","beentocounts":"426","livedcounts":"0"},{"id":"6404","city_name":"\u963f\u5409\u66fc","en_name":"Ajman","pingyin":"ajiman","country_id":"402","latitude":"25.403023","longitude":"55.491798","status":"1","plantocounts":"15","beentocounts":"483","livedcounts":"0"},{"id":"13199","city_name":"\u963f\u57fa\u5766\u5927\u533a","en_name":"Region Aquitaine","pingyin":"ajitandaqu","country_id":"186","latitude":"44.700222","longitude":"-0.299579","status":"1","plantocounts":"10","beentocounts":"2684","livedcounts":"0"},{"id":"10160","city_name":"\u963f\u5361","en_name":"Akko","pingyin":"aka","country_id":"569","latitude":"32.933052","longitude":"35.082680","status":"1","plantocounts":"64","beentocounts":"448","livedcounts":"0"},{"id":"7865","city_name":"\u963f\u5361\u8fea\u4e9a\u56fd\u5bb6\u516c\u56ed","en_name":"Acadia national park","pingyin":"akadiyaguojiagongyuan","country_id":"236","latitude":"44.338554","longitude":"-68.273338","status":"1","plantocounts":"130","beentocounts":"617","livedcounts":"0"},{"id":"10188","city_name":"\u963f\u5361\u7f57\u963f","en_name":"Akaroa","pingyin":"akaluoa","country_id":"241","latitude":"-43.803665","longitude":"172.968262","status":"1","plantocounts":"280","beentocounts":"1222","livedcounts":"3"},{"id":"15578","city_name":"\u963f\u5361\u9a6c\u65af\u534a\u5c9b","en_name":"Akamas","pingyin":"akamasibandao","country_id":"530","latitude":"35.049999","longitude":"32.299999","status":"1","plantocounts":"0","beentocounts":"0","livedcounts":"0"},{"id":"13563","city_name":"\u963f\u574e","en_name":"Achau","pingyin":"akan","country_id":"198","latitude":"48.079956","longitude":"16.382380","status":"1","plantocounts":"1","beentocounts":"1","livedcounts":"0"},{"id":"10314","city_name":"\u963f\u5361\u666e\u5c14\u79d1","en_name":"Acapulco","pingyin":"akapuerke","country_id":"515","latitude":"16.863794","longitude":"-99.881615","status":"1","plantocounts":"8","beentocounts":"109","livedcounts":"0"},{"id":"7193","city_name":"\u963f\u5361\u96c4","en_name":"Arcachon","pingyin":"akaxiong","country_id":"186","latitude":"44.652802","longitude":"-1.169200","status":"1","plantocounts":"119","beentocounts":"830","livedcounts":"0"},{"id":"7617","city_name":"\u963f\u514b\u62c9","en_name":"Accra","pingyin":"akela","country_id":"471","latitude":"5.550000","longitude":"-0.216667","status":"1","plantocounts":"15","beentocounts":"318","livedcounts":"4"},{"id":"13326","city_name":"\u963f\u514b\u62c9\u5185\u65af","en_name":"Akranes","pingyin":"akelaneisi","country_id":"425","latitude":"64.321922","longitude":"-22.070286","status":"1","plantocounts":"36","beentocounts":"90","livedcounts":"0"},{"id":"6901","city_name":"\u963f\u514b\u96f7\u91cc","en_name":"Akureyri","pingyin":"akeleili","country_id":"425","latitude":"65.666664","longitude":"-18.100000","status":"1","plantocounts":"351","beentocounts":"1290","livedcounts":"1"},{"id":"6433","city_name":"\u963f\u514b\u6d1b","en_name":"Arklow","pingyin":"akeluo","country_id":"406","latitude":"52.793056","longitude":"-6.141389","status":"1","plantocounts":"20","beentocounts":"54","livedcounts":"0"},{"id":"10986","city_name":"\u963f\u80af\u8fbe\u56fd\u5bb6\u516c\u56ed","en_name":"Akanda National Park","pingyin":"akendaguojiagongyuan","country_id":"473","latitude":"0.555879","longitude":"9.500614","status":"1","plantocounts":"1","beentocounts":"2","livedcounts":"0"},{"id":"7867","city_name":"\u963f\u80af\u8272","en_name":"Arkansas","pingyin":"akense","country_id":"236","latitude":"35.201050","longitude":"-91.831833","status":"1","plantocounts":"22","beentocounts":"216","livedcounts":"1"},{"id":"12537","city_name":"\u963f\u514b\u585e","en_name":"Akesai","pingyin":"akesai","country_id":"11","latitude":"39.633942","longitude":"94.340202","status":"1","plantocounts":"0","beentocounts":"0","livedcounts":"0"},{"id":"9828","city_name":"\u963f\u514b\u8428\u8d56","en_name":"Aksaray","pingyin":"akesalai","country_id":"195","latitude":"38.368690","longitude":"34.036980","status":"1","plantocounts":"38","beentocounts":"152","livedcounts":"0"},{"id":"13269","city_name":"\u963f\u514b\u4ec0\u80e1\u65af\u90e1","en_name":"Akershus","pingyin":"akeshenhusijun","country_id":"521","latitude":"60.000019","longitude":"11.369030","status":"1","plantocounts":"1","beentocounts":"6411","livedcounts":"0"},{"id":"11686","city_name":"\u963f\u514b\u82cf","en_name":"Akesu","pingyin":"akesu","country_id":"11","latitude":"41.168777","longitude":"80.260605","status":"1","plantocounts":"0","beentocounts":"0","livedcounts":"0"},{"id":"6426","city_name":"\u963f\u514b\u82cf\u59c6","en_name":"Aksum","pingyin":"akesumu","country_id":"405","latitude":"14.129722","longitude":"38.715832","status":"1","plantocounts":"11","beentocounts":"80","livedcounts":"0"},{"id":"11122","city_name":"\u963f\u514b\u82cf-\u70ed\u5df4\u683c\u96f7","en_name":"Aksu-Zhabagly","pingyin":"akesurebagelei","country_id":"461","latitude":"42.437569","longitude":"70.481804","status":"1","plantocounts":"6","beentocounts":"12","livedcounts":"0"},{"id":"7408","city_name":"\u963f\u514b\u5957","en_name":"Aktau","pingyin":"aketao","country_id":"461","latitude":"43.635609","longitude":"51.171230","status":"1","plantocounts":"8","beentocounts":"53","livedcounts":"0"},{"id":"10597","city_name":"\u963f\u594e\u62c9","en_name":"L'Aquila","pingyin":"akuila","country_id":"189","latitude":"42.349850","longitude":"13.399509","status":"1","plantocounts":"8","beentocounts":"67","livedcounts":"0"},{"id":"13084","city_name":"\u963f\u594e\u83b1\u4e9a","en_name":"Aquileia","pingyin":"akuilaiya","country_id":"189","latitude":"45.770000","longitude":"13.370000","status":"1","plantocounts":"2","beentocounts":"15","livedcounts":"0"},{"id":"15490","city_name":"\u963f\u5e93\u62c9\u62c9","en_name":"Akurala","pingyin":"akulala","country_id":"537","latitude":"6.191029","longitude":"80.063095","status":"1","plantocounts":"3","beentocounts":"1","livedcounts":"0"},{"id":"7868","city_name":"\u963f\u62c9\u5df4\u9a6c\u5dde","en_name":"Alabama","pingyin":"alabamazhou","country_id":"236","latitude":"32.318230","longitude":"-86.902298","status":"1","plantocounts":"12","beentocounts":"101","livedcounts":"2"},{"id":"12007","city_name":"\u963f\u62c9\u5c14","en_name":"Alaer","pingyin":"alaer","country_id":"11","latitude":"40.547653","longitude":"81.280525","status":"1","plantocounts":"0","beentocounts":"0","livedcounts":"0"},{"id":"10603","city_name":"\u963f\u62c9\u5c14\u65af\u514b","en_name":"Aralsk","pingyin":"alaersike","country_id":"461","latitude":"46.795650","longitude":"61.655640","status":"1","plantocounts":"0","beentocounts":"7","livedcounts":"0"},{"id":"11225","city_name":"\u963f\u62c9\u8d21\u81ea\u6cbb\u533a","en_name":"Aragon","pingyin":"alagongzizhiqu","country_id":"182","latitude":"41.597630","longitude":"-0.905662","status":"1","plantocounts":"14","beentocounts":"893","livedcounts":"0"},{"id":"10025","city_name":"\u963f\u62c9\u54c8\u5df4\u5fb7","en_name":"Allahabad","pingyin":"alahabade","country_id":"231","latitude":"25.435801","longitude":"81.846313","status":"1","plantocounts":"7","beentocounts":"112","livedcounts":"0"},{"id":"7355","city_name":"\u963f\u62c9\u80e1\u57c3\u62c9","en_name":"Alajuela","pingyin":"alahuaila","country_id":"454","latitude":"10.016667","longitude":"-84.216667","status":"1","plantocounts":"13","beentocounts":"107","livedcounts":"0"},{"id":"8655","city_name":"\u963f\u83b1\u683c\u91cc\u4e9a","en_name":"Alegria","pingyin":"alaigeliya","country_id":"525","latitude":"13.500000","longitude":"-88.483330","status":"1","plantocounts":"0","beentocounts":"2","livedcounts":"0"},{"id":"6804","city_name":"\u963f\u62c9\u5361\u8339","en_name":"Aracaju","pingyin":"alakaru","country_id":"242","latitude":"-10.916667","longitude":"-37.066666","status":"1","plantocounts":"10","beentocounts":"11","livedcounts":"0"},{"id":"13564","city_name":"\u963f\u62c9\u7c73\u8fbe","en_name":"Alameda,CA","pingyin":"alamida","country_id":"236","latitude":"37.765205","longitude":"-122.241638","status":"1","plantocounts":"2","beentocounts":"41","livedcounts":"0"},{"id":"15697","city_name":"\u963f\u62c9\u83ab\u6208\u591a","en_name":"Alamogordo","pingyin":"alamogeduo","country_id":"236","latitude":"32.899532","longitude":"-105.960266","status":"1","plantocounts":"33","beentocounts":"14","livedcounts":"0"},{"id":"10609","city_name":"\u963f\u62c9\u7a46\u7279\u5c71\u8c37","en_name":"Alamut Valley","pingyin":"alamuteshangu","country_id":"568","latitude":"36.443325","longitude":"50.586475","status":"1","plantocounts":"23","beentocounts":"80","livedcounts":"0"},{"id":"7409","city_name":"\u963f\u62c9\u6728\u56fe","en_name":"Almaty","pingyin":"alamutu","country_id":"461","latitude":"43.250000","longitude":"76.949997","status":"1","plantocounts":"101","beentocounts":"483","livedcounts":"5"},{"id":"13566","city_name":"\u963f\u5170\u8fbe","en_name":"Arlanda","pingyin":"alanda","country_id":"202","latitude":"59.649761","longitude":"17.923780","status":"1","plantocounts":"1","beentocounts":"147","livedcounts":"0"},{"id":"8900","city_name":"\u963f\u62c9\u5c3c\u4e9a","en_name":"Alanya","pingyin":"alaniya","country_id":"195","latitude":"36.552502","longitude":"32.002499","status":"1","plantocounts":"17","beentocounts":"60","livedcounts":"0"},{"id":"11390","city_name":"\u963f\u62c9\u6070\u7279","en_name":"Ala\u00e7at\u0131","pingyin":"alaqiate","country_id":"195","latitude":"38.282959","longitude":"26.374479","status":"1","plantocounts":"183","beentocounts":"886","livedcounts":"0"},{"id":"11636","city_name":"\u963f\u62c9\u5584\u76df","en_name":"Alashanmeng","pingyin":"alashanmeng","country_id":"11","latitude":"38.851891","longitude":"105.728966","status":"1","plantocounts":"0","beentocounts":"0","livedcounts":"0"},{"id":"12316","city_name":"\u963f\u62c9\u5584\u5de6\u65d7","en_name":"Alashanzuoqi","pingyin":"alashanzuoqi","country_id":"11","latitude":"38.833412","longitude":"105.666290","status":"1","plantocounts":"0","beentocounts":"0","livedcounts":"0"},{"id":"7869","city_name":"\u963f\u62c9\u65af\u52a0\u5dde","en_name":"Alaska","pingyin":"alasijiazhou","country_id":"236","latitude":"64.200844","longitude":"-149.493668","status":"1","plantocounts":"1090","beentocounts":"1432","livedcounts":"3"},{"id":"15250","city_name":"\u963f\u62c9\u65af\u666e\u6c83\u56fd\u5bb6\u516c\u56ed","en_name":"Alas Purwo National Park","pingyin":"alasipuwoguojiagongyuan","country_id":"570","latitude":"-8.704760","longitude":"114.449287","status":"1","plantocounts":"1","beentocounts":"0","livedcounts":"0"},{"id":"9225","city_name":"\u963f\u62c9\u97e6\u5c14\u8fea","en_name":"Alaverdi","pingyin":"alaweierdi","country_id":"566","latitude":"41.091885","longitude":"44.658981","status":"1","plantocounts":"8","beentocounts":"27","livedcounts":"0"},{"id":"13565","city_name":"\u963f\u62c9\u4e9a\u5c14-\u675c\u5361\u5e03","en_name":"Arraial do Cabo","pingyin":"alayaerdukabu","country_id":"242","latitude":"-22.965736","longitude":"-42.027988","status":"1","plantocounts":"1","beentocounts":"3","livedcounts":"0"},{"id":"6805","city_name":"\u963f\u96f7\u683c\u91cc\u6e2f","en_name":"Porto alegre","pingyin":"aleigeligang","country_id":"242","latitude":"-30.027704","longitude":"-51.228737","status":"1","plantocounts":"27","beentocounts":"171","livedcounts":"2"},{"id":"8240","city_name":"\u963f\u96f7\u57fa\u5e15","en_name":"Arequipa","pingyin":"aleijipa","country_id":"509","latitude":"-16.398890","longitude":"-71.535004","status":"1","plantocounts":"72","beentocounts":"410","livedcounts":"0"},{"id":"10683","city_name":"\u963f\u96f7\u897f\u6c83","en_name":"Arecibo","pingyin":"aleixiwo","country_id":"426","latitude":"18.472445","longitude":"-66.715729","status":"1","plantocounts":"6","beentocounts":"40","livedcounts":"0"},{"id":"9272","city_name":"\u963f\u96f7\u4f50","en_name":"Arezzo","pingyin":"aleizuo","country_id":"189","latitude":"43.466969","longitude":"11.882308","status":"1","plantocounts":"87","beentocounts":"430","livedcounts":"1"},{"id":"10807","city_name":"\u963f\u52d2\u9887","en_name":"Aleppo","pingyin":"alepo","country_id":"564","latitude":"36.215549","longitude":"37.159279","status":"1","plantocounts":"28","beentocounts":"129","livedcounts":"0"},{"id":"8752","city_name":"\u963f\u52d2\u6d66","en_name":"Ullapool","pingyin":"alepu","country_id":"13","latitude":"57.900002","longitude":"-5.166667","status":"1","plantocounts":"4","beentocounts":"40","livedcounts":"1"},{"id":"13567","city_name":"\u963f\u52d2\u65af\u8c6a\u68ee","en_name":"Allershausen","pingyin":"alesihaosen","country_id":"15","latitude":"48.431187","longitude":"11.597073","status":"1","plantocounts":"0","beentocounts":"1","livedcounts":"0"},{"id":"11692","city_name":"\u963f\u52d2\u6cf0","en_name":"Aletai","pingyin":"aletai","country_id":"11","latitude":"47.844925","longitude":"88.141251","status":"1","plantocounts":"0","beentocounts":"0","livedcounts":"0"},{"id":"10334","city_name":"\u963f\u52d2\u7279","en_name":"Alert","pingyin":"alete","country_id":"238","latitude":"82.516304","longitude":"-62.308483","status":"1","plantocounts":"8","beentocounts":"11","livedcounts":"0"},{"id":"11956","city_name":"\u963f\u91cc","en_name":"Ali","pingyin":"ali","country_id":"11","latitude":"32.501110","longitude":"80.105804","status":"1","plantocounts":"0","beentocounts":"0","livedcounts":"0"},{"id":"9781","city_name":"\u963f\u91cc\u5361","en_name":"Arica","pingyin":"alika","country_id":"575","latitude":"-18.483334","longitude":"-70.333336","status":"1","plantocounts":"26","beentocounts":"103","livedcounts":"0"},{"id":"9068","city_name":"\u963f\u5229\u574e\u7279","en_name":"Alicante","pingyin":"alikante","country_id":"182","latitude":"38.349998","longitude":"-0.483333","status":"1","plantocounts":"87","beentocounts":"783","livedcounts":"5"},{"id":"15674","city_name":"\u963f\u7075\u987f\uff08\u5fb7\u514b\u8428\u65af\uff09","en_name":"Arlington TX","pingyin":"alingdundundekesasisi","country_id":"236","latitude":"32.735687","longitude":"-97.108063","status":"1","plantocounts":"6","beentocounts":"31","livedcounts":"0"},{"id":"10996","city_name":"\u963f\u91cc\u8428\u6bd4\u8036","en_name":"Ali Sabieh","pingyin":"alisabiye","country_id":"467","latitude":"11.151640","longitude":"42.712231","status":"1","plantocounts":"1","beentocounts":"4","livedcounts":"0"},{"id":"13568","city_name":"\u963f\u91cc\u585e\u683c","en_name":"Arisaig","pingyin":"alisaige","country_id":"13","latitude":"56.909855","longitude":"-5.843095","status":"1","plantocounts":"0","beentocounts":"1","livedcounts":"0"},{"id":"7871","city_name":"\u963f\u7559\u7533\u7fa4\u5c9b","en_name":"Aleutian islands","pingyin":"aliushenqundao","country_id":"236","latitude":"52.096943","longitude":"-173.500549","status":"1","plantocounts":"9","beentocounts":"18","livedcounts":"0"},{"id":"15431","city_name":"\u963f\u9c81\u7518\u6e7e","en_name":"Arugam Bay","pingyin":"aluganwan","country_id":"537","latitude":"6.836199","longitude":"81.830635","status":"1","plantocounts":"16","beentocounts":"31","livedcounts":"0"},{"id":"13570","city_name":"\u963f\u4f26\u624e\u8bfa","en_name":"Arenzano","pingyin":"alunzhanuo","country_id":"189","latitude":"44.405861","longitude":"8.686017","status":"1","plantocounts":"0","beentocounts":"1","livedcounts":"0"},{"id":"13575","city_name":"\u963f\u6d1b","en_name":"Allauch","pingyin":"aluo","country_id":"186","latitude":"43.336147","longitude":"5.482574","status":"1","plantocounts":"1","beentocounts":"0","livedcounts":"0"},{"id":"10403","city_name":"\u963f\u6d1b\u5c9b","en_name":"Alor","pingyin":"aluodao","country_id":"570","latitude":"-8.275403","longitude":"124.729874","status":"1","plantocounts":"3","beentocounts":"19","livedcounts":"0"},{"id":"9102","city_name":"\u7bad\u9547","en_name":"Arrowtown","pingyin":"aluodun","country_id":"241","latitude":"-44.941689","longitude":"168.835861","status":"1","plantocounts":"658","beentocounts":"5097","livedcounts":"0"},{"id":"10441","city_name":"\u963f\u6d1b\u83f2","en_name":"Alofi","pingyin":"aluofei","country_id":"1064","latitude":"-19.055370","longitude":"-169.917877","status":"1","plantocounts":"42","beentocounts":"20","livedcounts":"0"},{"id":"13576","city_name":"\u963f\u6d1b\u683c\u8bfa","en_name":"Arogno","pingyin":"aluogenuo","country_id":"524","latitude":"45.959991","longitude":"8.985970","status":"1","plantocounts":"0","beentocounts":"0","livedcounts":"0"},{"id":"13571","city_name":"\u963f\u7f57\u8292\u4ec0\u83b1\u73ed","en_name":"Arromanches-les-Bains","pingyin":"aluomangshenlaiban","country_id":"186","latitude":"49.339020","longitude":"-0.622415","status":"1","plantocounts":"10","beentocounts":"2","livedcounts":"0"},{"id":"13572","city_name":"\u963f\u7f57\u7eb3","en_name":"Arona","pingyin":"aluona","country_id":"189","latitude":"45.758614","longitude":"8.558182","status":"1","plantocounts":"4","beentocounts":"21","livedcounts":"0"},{"id":"6738","city_name":"\u963f\u6d1b\u9676","en_name":"Alotau","pingyin":"aluotao","country_id":"412","latitude":"-10.300000","longitude":"150.416672","status":"1","plantocounts":"1","beentocounts":"7","livedcounts":"0"},{"id":"13573","city_name":"\u963f\u7f57\u897f\u5965","en_name":"Arosio","pingyin":"aluoxiao","country_id":"189","latitude":"45.717003","longitude":"9.216150","status":"1","plantocounts":"0","beentocounts":"1","livedcounts":"0"},{"id":"6906","city_name":"\u963f\u7f57\u7ea6","en_name":"Arroyo","pingyin":"aluoyue","country_id":"426","latitude":"17.965801","longitude":"-66.061279","status":"1","plantocounts":"2","beentocounts":"10","livedcounts":"0"},{"id":"13574","city_name":"\u963f\u7f57\u7ea6\u683c\u5170\u5fb7","en_name":"Arroyo Grande","pingyin":"aluoyuegelande","country_id":"236","latitude":"35.118587","longitude":"-120.590729","status":"1","plantocounts":"2","beentocounts":"3","livedcounts":"0"},{"id":"8870","city_name":"\u963f\u9c81\u6c99","en_name":"Arusha","pingyin":"alusha","country_id":"546","latitude":"-3.366667","longitude":"36.683334","status":"1","plantocounts":"54","beentocounts":"941","livedcounts":"1"},{"id":"8871","city_name":"\u963f\u9c81\u6c99\u56fd\u5bb6\u516c\u56ed","en_name":"Arusha National Park","pingyin":"alushaguojiagongyuan","country_id":"546","latitude":"-3.250000","longitude":"36.750000","status":"1","plantocounts":"34","beentocounts":"286","livedcounts":"0"},{"id":"15494","city_name":"\u963f\u9c81\u7279\u4f3d\u9a6c","en_name":"Aluthgama","pingyin":"alutegama","country_id":"537","latitude":"6.434573","longitude":"80.000389","status":"1","plantocounts":"1","beentocounts":"1","livedcounts":"0"},{"id":"9273","city_name":"\u963f\u9a6c\u5c14\u83f2","en_name":"Amalfi","pingyin":"amafei","country_id":"189","latitude":"40.633331","longitude":"14.600000","status":"1","plantocounts":"779","beentocounts":"2608","livedcounts":"3"},{"id":"11247","city_name":"\u963f\u9a6c\u91cc\u6d1b","en_name":"Amarillo","pingyin":"amaliluo","country_id":"236","latitude":"35.219257","longitude":"-101.833755","status":"1","plantocounts":"7","beentocounts":"90","livedcounts":"1"},{"id":"8901","city_name":"\u963f\u9a6c\u897f\u4e9a","en_name":"Amasya","pingyin":"amaxiya","country_id":"195","latitude":"40.653332","longitude":"35.833057","status":"1","plantocounts":"79","beentocounts":"118","livedcounts":"0"},{"id":"13577","city_name":"\u963f\u7c73\u4ee3\u5c14","en_name":"Armidale","pingyin":"amidaier","country_id":"240","latitude":"-30.514343","longitude":"151.666962","status":"1","plantocounts":"1","beentocounts":"16","livedcounts":"0"},{"id":"9015","city_name":"\u963f\u83ab\u5c14\u6208\u65af","en_name":"Amorgos","pingyin":"amoergesi","country_id":"206","latitude":"36.833332","longitude":"25.900000","status":"1","plantocounts":"9","beentocounts":"19","livedcounts":"0"},{"id":"7468","city_name":"\u5f17\u91cc\u897f\u4e9a\u7fa4\u5c9b","en_name":"Frisian Island","pingyin":"amolandao","country_id":"200","latitude":"53.390266","longitude":"5.379883","status":"1","plantocounts":"33","beentocounts":"49","livedcounts":"0"},{"id":"10135","city_name":"\u963f\u9ed8\u65af\u798f\u7279","en_name":"Amersfoort","pingyin":"amosifute","country_id":"200","latitude":"52.156113","longitude":"5.387827","status":"1","plantocounts":"19","beentocounts":"356","livedcounts":"0"},{"id":"13578","city_name":"\u963f\u59c6","en_name":"Aime","pingyin":"amu","country_id":"186","latitude":"45.555981","longitude":"6.652126","status":"1","plantocounts":"6","beentocounts":"4","livedcounts":"0"},{"id":"10388","city_name":"\u963f\u7a46\u5c14\u6cb3\u7554\u5171\u9752\u57ce","en_name":"Komsomolsk-on-Amur","pingyin":"amuerhepangongqingcheng","country_id":"208","latitude":"50.533894","longitude":"137.016418","status":"1","plantocounts":"20","beentocounts":"44","livedcounts":"0"},{"id":"9412","city_name":"\u963f\u59c6\u5229\u5219","en_name":"Amritsar","pingyin":"amulize","country_id":"231","latitude":"31.633057","longitude":"74.865555","status":"1","plantocounts":"190","beentocounts":"1362","livedcounts":"1"},{"id":"42","city_name":"\u963f\u59c6\u65af\u7279\u4e39","en_name":"Amsterdam","pingyin":"amusitedan","country_id":"200","latitude":"52.370216","longitude":"4.895168","status":"1","plantocounts":"10975","beentocounts":"36870","livedcounts":"290"},{"id":"13579","city_name":"\u963f\u59c6\u65af\u7279\u5c14\u82ac","en_name":"Amstelveen","pingyin":"amusiteerfen","country_id":"200","latitude":"52.311420","longitude":"4.870087","status":"1","plantocounts":"5","beentocounts":"98","livedcounts":"0"},{"id":"9016","city_name":"\u963f\u7eb3\u83f2\u5c9b","en_name":"Anafi","pingyin":"anafeidao","country_id":"206","latitude":"36.349998","longitude":"25.766666","status":"1","plantocounts":"34","beentocounts":"19","livedcounts":"0"},{"id":"13580","city_name":"\u963f\u7eb3\u5361\u666e\u91cc","en_name":"Anacapri","pingyin":"anakapuli","country_id":"189","latitude":"40.552837","longitude":"14.213814","status":"1","plantocounts":"5","beentocounts":"48","livedcounts":"0"},{"id":"10132","city_name":"\u963f\u7eb3\u59c6","en_name":"Arnhem","pingyin":"anamu","country_id":"200","latitude":"51.985561","longitude":"5.909860","status":"1","plantocounts":"42","beentocounts":"649","livedcounts":"4"},{"id":"7769","city_name":"\u5b89\u5df4\u62c9\u6c83","en_name":"Ambalavao","pingyin":"anbalawo","country_id":"496","latitude":"-21.834669","longitude":"46.936981","status":"1","plantocounts":"17","beentocounts":"21","livedcounts":"0"},{"id":"7172","city_name":"\u5b89\u5df4\u6258","en_name":"Ambato","pingyin":"anbatuo","country_id":"443","latitude":"-1.250000","longitude":"-78.616669","status":"1","plantocounts":"2","beentocounts":"30","livedcounts":"0"},{"id":"13642","city_name":"\u5b89\u8d1d\u683c","en_name":"Amberg","pingyin":"anbeige","country_id":"15","latitude":"49.440319","longitude":"11.863345","status":"1","plantocounts":"0","beentocounts":"15","livedcounts":"0"},{"id":"15486","city_name":"\u5b89\u8d1d\u7ef4\u62c9","en_name":"Ambewela","pingyin":"anbeiweila","country_id":"537","latitude":"6.878719","longitude":"80.813553","status":"1","plantocounts":"0","beentocounts":"0","livedcounts":"0"},{"id":"10715","city_name":"\u5b89\u4f2f\u683c\u91cc\u65af\u5c9b","en_name":"Ambergris Caye","pingyin":"anbogelisidao","country_id":"430","latitude":"18.001593","longitude":"-87.943283","status":"1","plantocounts":"3","beentocounts":"26","livedcounts":"0"},{"id":"15488","city_name":"\u5b89\u4f2f\u6717\u6208\u5fb7","en_name":"Ambalangoda","pingyin":"anbolanggede","country_id":"537","latitude":"6.244152","longitude":"80.059082","status":"1","plantocounts":"2","beentocounts":"15","livedcounts":"2"},{"id":"9548","city_name":"\u5b89\u535a\u585e\u5f97","en_name":"Ambleside","pingyin":"anbosaide","country_id":"13","latitude":"54.416668","longitude":"-2.966667","status":"1","plantocounts":"107","beentocounts":"558","livedcounts":"0"},{"id":"7712","city_name":"\u5b89\u535a\u585e\u5229\u56fd\u5bb6\u516c\u56ed","en_name":"Amboseli national park","pingyin":"anbosailiguojiagongyuan","country_id":"483","latitude":"-2.626610","longitude":"37.254406","status":"1","plantocounts":"231","beentocounts":"1205","livedcounts":"0"},{"id":"8930","city_name":"\u5b89\u5e03\u91cc\u59c6\u5c9b","en_name":"Ambrym","pingyin":"anbulimudao","country_id":"554","latitude":"-16.247784","longitude":"168.156448","status":"1","plantocounts":"12","beentocounts":"9","livedcounts":"0"},{"id":"7770","city_name":"\u5b89\u5e03\u897f\u7279\u62c9","en_name":"Ambositra","pingyin":"anbuxitela","country_id":"496","latitude":"-20.516666","longitude":"47.250000","status":"1","plantocounts":"5","beentocounts":"21","livedcounts":"0"},{"id":"12184","city_name":"\u5b89\u660c\u9547","en_name":"Anchang","pingyin":"anchang","country_id":"11","latitude":"30.136520","longitude":"120.497597","status":"1","plantocounts":"0","beentocounts":"0","livedcounts":"0"},{"id":"13643","city_name":"\u5b89\u8fbe\u8d6b\u6cbb","en_name":"Unterhaching","pingyin":"andahezhi","country_id":"15","latitude":"48.068916","longitude":"11.621253","status":"1","plantocounts":"0","beentocounts":"8","livedcounts":"0"},{"id":"13644","city_name":"\u5b89\u4ee3\u514b","en_name":"Andijk","pingyin":"andaike","country_id":"200","latitude":"52.745491","longitude":"5.220876","status":"1","plantocounts":"0","beentocounts":"1","livedcounts":"0"},{"id":"15880","city_name":"\u5b89\u5927\u7565","en_name":"CA Ontario","pingyin":"andalue","country_id":"236","latitude":"34.052769","longitude":"-117.632774","status":"1","plantocounts":"3","beentocounts":"30","livedcounts":"0"},{"id":"7514","city_name":"\u5b89\u5927\u7565\u7701","en_name":"Ontario","pingyin":"andaluesheng","country_id":"238","latitude":"51.253777","longitude":"-85.323212","status":"1","plantocounts":"112","beentocounts":"7506","livedcounts":"5"},{"id":"9070","city_name":"\u5b89\u8fbe\u5362\u897f\u4e9a","en_name":"Andalucia","pingyin":"andaluxiya","country_id":"182","latitude":"37.544270","longitude":"-4.727753","status":"1","plantocounts":"184","beentocounts":"10193","livedcounts":"2"},{"id":"11379","city_name":"\u5b89\u8fbe\u66fc\u7fa4\u5c9b","en_name":"Andaman Islands","pingyin":"andamanqundao","country_id":"231","latitude":"11.740087","longitude":"92.658638","status":"1","plantocounts":"15","beentocounts":"11","livedcounts":"0"},{"id":"6527","city_name":"\u5b89\u9053\u5c14\u57ce","en_name":"Andorra la vella","pingyin":"andaoer","country_id":"408","latitude":"42.500000","longitude":"1.516667","status":"1","plantocounts":"176","beentocounts":"1334","livedcounts":"0"},{"id":"7771","city_name":"\u5b89\u8fbe\u897f\u8d1d\u56fd\u5bb6\u516c\u56ed","en_name":"Andasibe-Mantadia National Park","pingyin":"andaxibeiguojiagongyuan","country_id":"496","latitude":"-18.834980","longitude":"48.458736","status":"1","plantocounts":"101","beentocounts":"95","livedcounts":"0"},{"id":"10916","city_name":"\u5b89\u5fb7\u7acb\u5409\u5854\u56fd\u5bb6\u516c\u56ed","en_name":"Andringitra National Park","pingyin":"andelijitaguojiagongyuan","country_id":"496","latitude":"-22.222860","longitude":"46.929089","status":"1","plantocounts":"62","beentocounts":"21","livedcounts":"0"},{"id":"6764","city_name":"\u5df4\u54c8\u9a6c\u5b89\u5fb7\u7f57\u65af\u5c9b","en_name":"Andros","pingyin":"andeluosidao","country_id":"413","latitude":"24.706381","longitude":"-78.019539","status":"1","plantocounts":"9","beentocounts":"20","livedcounts":"0"},{"id":"9017","city_name":"\u5e0c\u814a\u5b89\u5fb7\u7f57\u65af\u5c9b","en_name":"Andros","pingyin":"andeluosidao","country_id":"206","latitude":"37.838039","longitude":"24.939127","status":"1","plantocounts":"34","beentocounts":"45","livedcounts":"0"},{"id":"10087","city_name":"\u5b89\u5fb7\u9a6c\u7279","en_name":"Andermatt","pingyin":"andemate","country_id":"524","latitude":"46.633598","longitude":"8.594810","status":"1","plantocounts":"24","beentocounts":"276","livedcounts":"0"},{"id":"8447","city_name":"\u5b89\u5fb7\u5185\u65af","en_name":"Andenes","pingyin":"andeneisi","country_id":"521","latitude":"69.320274","longitude":"16.142778","status":"1","plantocounts":"17","beentocounts":"78","livedcounts":"0"},{"id":"11373","city_name":"\u667a\u5229\u5b89\u7b2c\u65af\u9ad8\u539f","en_name":"Altiplano","pingyin":"andisigaoyuan","country_id":"575","latitude":"-18.473055","longitude":"-68.001900","status":"1","plantocounts":"79","beentocounts":"95","livedcounts":"0"},{"id":"7426","city_name":"\u5b89\u4e1c","en_name":"Andong","pingyin":"andong","country_id":"233","latitude":"36.562859","longitude":"128.724106","status":"1","plantocounts":"76","beentocounts":"394","livedcounts":"0"},{"id":"13645","city_name":"\u5b89\u4e1c\u5c3c","en_name":"Antony","pingyin":"andongni","country_id":"186","latitude":"48.759254","longitude":"2.302553","status":"1","plantocounts":"3","beentocounts":"56","livedcounts":"1"},{"id":"9203","city_name":"\u5b89\u4e1c\u5c3c\u5965\u6e2f","en_name":"Port antonio","pingyin":"andongniaogang","country_id":"565","latitude":"18.174198","longitude":"-76.446754","status":"1","plantocounts":"18","beentocounts":"65","livedcounts":"0"},{"id":"12497","city_name":"\u5b89\u591a","en_name":"Anduo","pingyin":"anduo","country_id":"11","latitude":"32.249928","longitude":"91.666733","status":"1","plantocounts":"0","beentocounts":"0","livedcounts":"0"},{"id":"9721","city_name":"\u963f\u5185\u52a0\u8fbe\u5c9b","en_name":"Anegada","pingyin":"aneijiadadao","country_id":"571","latitude":"18.727243","longitude":"-64.343086","status":"1","plantocounts":"4","beentocounts":"20","livedcounts":"0"},{"id":"15557","city_name":"\u963f\u8bb7\u83b1\u5c9b","en_name":"Analaitivu","pingyin":"anelaidao","country_id":"537","latitude":"9.667900","longitude":"79.776436","status":"1","plantocounts":"0","beentocounts":"0","livedcounts":"0"},{"id":"7194","city_name":"\u963f\u8bb7\u897f","en_name":"Annecy","pingyin":"anexi","country_id":"186","latitude":"45.900002","longitude":"6.116667","status":"1","plantocounts":"1088","beentocounts":"4625","livedcounts":"11"},{"id":"13646","city_name":"\u5b89\u83f2\u7fc1\u00b7\u83b1\u65af\u00b7\u73ed\u6069\u65af","en_name":"Amphion les Bains","pingyin":"anfeiwenglaisibanensi","country_id":"186","latitude":"46.358479","longitude":"6.444005","status":"1","plantocounts":"0","beentocounts":"0","livedcounts":"0"},{"id":"12891","city_name":"\u5b89\u798f","en_name":"Anfu","pingyin":"anfu","country_id":"11","latitude":"27.392874","longitude":"114.619896","status":"1","plantocounts":"0","beentocounts":"0","livedcounts":"0"},{"id":"7198","city_name":"\u6602\u5e03\u74e6\u5179","en_name":"Amboise","pingyin":"angbuwasi","country_id":"186","latitude":"47.416668","longitude":"0.983333","status":"1","plantocounts":"131","beentocounts":"930","livedcounts":"0"},{"id":"13647","city_name":"\u5b89\u683c\u5c14","en_name":"Anger","pingyin":"angeer","country_id":"15","latitude":"47.478420","longitude":"-0.563166","status":"1","plantocounts":"0","beentocounts":"0","livedcounts":"0"},{"id":"6806","city_name":"\u5b89\u683c\u62c9-\u675c\u65af\u96f7\u65af","en_name":"Angra dos reis","pingyin":"angeladusileisi","country_id":"242","latitude":"-23.000000","longitude":"-44.299999","status":"1","plantocounts":"2","beentocounts":"33","livedcounts":"0"},{"id":"15583","city_name":"\u5b89\u683c\u96f7\u7c73","en_name":"Angolemi","pingyin":"angeleimi","country_id":"530","latitude":"35.117924","longitude":"32.949402","status":"1","plantocounts":"0","beentocounts":"0","livedcounts":"0"},{"id":"13127","city_name":"\u5b89\u683c\u5229\u5947\u6bd4\u6851\u5c9b","en_name":"Ngerekebesang Island ","pingyin":"angeliqibisangdao","country_id":"522","latitude":"7.352715","longitude":"134.448853","status":"1","plantocounts":"27","beentocounts":"28","livedcounts":"0"},{"id":"15882","city_name":"\u6602\u53e4\u83b1\u59c6","en_name":"Angouleme","pingyin":"anggulaimu","country_id":"186","latitude":"45.648376","longitude":"0.156237","status":"1","plantocounts":"2","beentocounts":"10","livedcounts":"0"},{"id":"7199","city_name":"\u6602\u70ed","en_name":"Angers","pingyin":"angre","country_id":"186","latitude":"47.466667","longitude":"-0.550000","status":"1","plantocounts":"65","beentocounts":"729","livedcounts":"17"},{"id":"12652","city_name":"\u6602\u4ec1","en_name":"Angren","pingyin":"angren","country_id":"11","latitude":"29.294802","longitude":"87.236053","status":"1","plantocounts":"0","beentocounts":"0","livedcounts":"0"},{"id":"11006","city_name":"\u6602\u5112\u6602\u5c9b","en_name":"Anjouan","pingyin":"angruangdao","country_id":"478","latitude":"-12.213814","longitude":"44.437061","status":"1","plantocounts":"1","beentocounts":"4","livedcounts":"0"},{"id":"13345","city_name":"\u6602\u82cf\u4f0a","en_name":"Ansouis","pingyin":"angsuyi","country_id":"186","latitude":"43.737930","longitude":"5.463834","status":"1","plantocounts":"1","beentocounts":"0","livedcounts":"0"},{"id":"13302","city_name":"\u6602\u7279\u5c14\u5fb7","en_name":"Entre Deux","pingyin":"angteerde","country_id":"492","latitude":"-21.246447","longitude":"55.470825","status":"1","plantocounts":"1","beentocounts":"3","livedcounts":"0"},{"id":"12363","city_name":"\u5b89\u5316","en_name":"Anhua","pingyin":"anhua","country_id":"11","latitude":"28.374107","longitude":"111.212845","status":"1","plantocounts":"0","beentocounts":"0","livedcounts":"0"},{"id":"13582","city_name":"\u963f\u6d85\u52d2","en_name":"Asni\u00e8res","pingyin":"aniele","country_id":"186","latitude":"48.914154","longitude":"2.285369","status":"1","plantocounts":"0","beentocounts":"13","livedcounts":"0"},{"id":"13581","city_name":"\u963f\u5c3c\u592b","en_name":"Anif","pingyin":"anifu","country_id":"198","latitude":"47.751431","longitude":"13.064939","status":"1","plantocounts":"3","beentocounts":"6","livedcounts":"0"},{"id":"9541","city_name":"\u963f\u5c3c\u514b","en_name":"Alnwick","pingyin":"anike","country_id":"13","latitude":"55.400002","longitude":"-1.700000","status":"1","plantocounts":"140","beentocounts":"155","livedcounts":"0"},{"id":"11918","city_name":"\u5b89\u5409","en_name":"Anji","pingyin":"anji","country_id":"11","latitude":"30.638676","longitude":"119.680351","status":"1","plantocounts":"0","beentocounts":"2","livedcounts":"0"},{"id":"13649","city_name":"\u5b89\u6770\u5229\u5723\u6bcd","en_name":"Santa Maria degli Angeli","pingyin":"anjielishengmu","country_id":"189","latitude":"43.057587","longitude":"12.576022","status":"1","plantocounts":"0","beentocounts":"3","livedcounts":"0"},{"id":"13648","city_name":"\u5b89\u5409\u5229\u65af","en_name":"Angeles","pingyin":"anjilisi","country_id":"446","latitude":"15.144985","longitude":"120.588699","status":"1","plantocounts":"6","beentocounts":"44","livedcounts":"0"},{"id":"9008","city_name":"\u5b89\u96c6\u5ef6","en_name":"Andijon","pingyin":"anjiyan","country_id":"562","latitude":"40.654167","longitude":"72.357498","status":"1","plantocounts":"1","beentocounts":"26","livedcounts":"0"},{"id":"8905","city_name":"\u5b89\u5361\u62c9","en_name":"Ankara","pingyin":"ankala","country_id":"195","latitude":"39.927223","longitude":"32.864445","status":"1","plantocounts":"554","beentocounts":"3034","livedcounts":"0"},{"id":"11907","city_name":"\u5b89\u5eb7","en_name":"Ankang","pingyin":"ankang","country_id":"11","latitude":"32.684715","longitude":"109.029022","status":"1","plantocounts":"0","beentocounts":"0","livedcounts":"0"},{"id":"7878","city_name":"\u5b89\u514b\u96f7\u5947","en_name":"Anchorage","pingyin":"ankeleiqi","country_id":"236","latitude":"61.218056","longitude":"-149.900284","status":"1","plantocounts":"176","beentocounts":"1078","livedcounts":"3"},{"id":"9279","city_name":"\u5b89\u79d1\u7eb3","en_name":"Ancona","pingyin":"ankena","country_id":"189","latitude":"43.633331","longitude":"13.500000","status":"1","plantocounts":"24","beentocounts":"403","livedcounts":"0"},{"id":"9782","city_name":"\u5b89\u5e93\u5fb7","en_name":"Ancud","pingyin":"ankude","country_id":"575","latitude":"-41.869720","longitude":"-73.820274","status":"1","plantocounts":"2","beentocounts":"29","livedcounts":"0"},{"id":"15808","city_name":"\u5b89\u6765\u5e02","en_name":"Yasugi","pingyin":"anlaishi","country_id":"14","latitude":"35.431442","longitude":"133.250916","status":"1","plantocounts":"22","beentocounts":"16","livedcounts":"0"},{"id":"12605","city_name":"\u5b89\u9f99","en_name":"Anlong","pingyin":"anlong","country_id":"11","latitude":"25.099014","longitude":"105.442703","status":"1","plantocounts":"0","beentocounts":"0","livedcounts":"0"},{"id":"7650","city_name":"\u5b89\u9686\u6c76","en_name":"Anlong veng","pingyin":"anlongwen","country_id":"219","latitude":"14.233333","longitude":"104.083336","status":"1","plantocounts":"28","beentocounts":"96","livedcounts":"0"},{"id":"12563","city_name":"\u5b89\u9646","en_name":"Anlu","pingyin":"anlu","country_id":"11","latitude":"31.255594","longitude":"113.689026","status":"1","plantocounts":"0","beentocounts":"0","livedcounts":"0"},{"id":"9725","city_name":"\u5b89\u66fc","en_name":"Amman","pingyin":"anman","country_id":"572","latitude":"31.950001","longitude":"35.933334","status":"1","plantocounts":"358","beentocounts":"2259","livedcounts":"2"},{"id":"13650","city_name":"\u5b89\u59c6\u6bd4\u5229","en_name":"Ambilly","pingyin":"anmubili","country_id":"186","latitude":"46.194111","longitude":"6.223001","status":"1","plantocounts":"0","beentocounts":"1","livedcounts":"0"},{"id":"6327","city_name":"\u5b89\u7eb3\u5df4","en_name":"Annaba","pingyin":"annaba","country_id":"400","latitude":"36.900002","longitude":"7.766667","status":"1","plantocounts":"5","beentocounts":"69","livedcounts":"0"},{"id":"13653","city_name":"\u5b89\u5a1c\u5821","en_name":"Ann Arbor","pingyin":"annabao","country_id":"236","latitude":"42.280827","longitude":"-83.743034","status":"1","plantocounts":"28","beentocounts":"201","livedcounts":"5"},{"id":"13343","city_name":"\u5b89\u5a1c\u4fdd\u7f57\u5a1c","en_name":"Anna Paulowna","pingyin":"annabaoluona","country_id":"200","latitude":"52.861614","longitude":"4.823809","status":"1","plantocounts":"25","beentocounts":"12","livedcounts":"0"},{"id":"7879","city_name":"\u5b89\u7eb3\u6ce2\u5229\u65af","en_name":"Annapolis","pingyin":"annabolisi","country_id":"236","latitude":"38.978443","longitude":"-76.492180","status":"1","plantocounts":"40","beentocounts":"368","livedcounts":"0"},{"id":"13651","city_name":"\u5b89\u7eb3\u6d77\u59c6","en_name":"Anaheim","pingyin":"annahaimu","country_id":"236","latitude":"33.835293","longitude":"-117.914505","status":"1","plantocounts":"19","beentocounts":"248","livedcounts":"1"},{"id":"13652","city_name":"\u5b89\u7eb3\u9a6c\u65af","en_name":"Annemasse","pingyin":"annamasi","country_id":"186","latitude":"46.193253","longitude":"6.234158","status":"1","plantocounts":"1","beentocounts":"26","livedcounts":"0"},{"id":"15392","city_name":"\u5b89\u5a1c\u666e\u5c14\u7eb3\u4fdd\u62a4\u533a","en_name":"Annapurna Conservation Area","pingyin":"annapuernabaohuqu","country_id":"220","latitude":"28.596111","longitude":"83.820274","status":"1","plantocounts":"9","beentocounts":"9671","livedcounts":"0"},{"id":"12801","city_name":"\u5b89\u5b81\u5e02","en_name":"Anning","pingyin":"anning","country_id":"11","latitude":"24.919493","longitude":"102.478493","status":"1","plantocounts":"0","beentocounts":"0","livedcounts":"0"},{"id":"15434","city_name":"\u5b89\u5e15\u62c9","en_name":"Ampara","pingyin":"anpala","country_id":"537","latitude":"7.301756","longitude":"81.674728","status":"1","plantocounts":"3","beentocounts":"3","livedcounts":"0"},{"id":"7772","city_name":"\u5b89\u9f50\u62c9\u8d1d","en_name":"Antsirabe","pingyin":"anqilabei","country_id":"496","latitude":"-19.866667","longitude":"47.033333","status":"1","plantocounts":"21","beentocounts":"96","livedcounts":"0"},{"id":"12046","city_name":"\u5b89\u5e86","en_name":"Anqing","pingyin":"anqing","country_id":"11","latitude":"30.543493","longitude":"117.063751","status":"1","plantocounts":"0","beentocounts":"0","livedcounts":"0"},{"id":"12087","city_name":"\u5b89\u4ec1","en_name":"Anren","pingyin":"anren","country_id":"11","latitude":"26.709057","longitude":"113.269440","status":"1","plantocounts":"0","beentocounts":"0","livedcounts":"0"},{"id":"12844","city_name":"\u5b89\u585e","en_name":"Ansai","pingyin":"ansai","country_id":"11","latitude":"36.863853","longitude":"109.328842","status":"1","plantocounts":"0","beentocounts":"0","livedcounts":"0"},{"id":"13344","city_name":"Anse Boileau","en_name":"Anse Boileau","pingyin":"Anse Boileau","country_id":"531","latitude":"-4.704727","longitude":"55.485935","status":"1","plantocounts":"20","beentocounts":"76","livedcounts":"0"},{"id":"11653","city_name":"\u978d\u5c71","en_name":"Anshan","pingyin":"anshan","country_id":"11","latitude":"41.108646","longitude":"122.994331","status":"1","plantocounts":"0","beentocounts":"0","livedcounts":"0"},{"id":"11769","city_name":"\u5b89\u987a","en_name":"Anshun","pingyin":"anshun","country_id":"11","latitude":"26.253073","longitude":"105.947594","status":"1","plantocounts":"0","beentocounts":"2","livedcounts":"0"},{"id":"15625","city_name":"\u5b89\u987a\u5e02\uff08\u9739\u96f3\u5dde\uff09","en_name":"Teluk Intan","pingyin":"anshunshishipilizhouzhou","country_id":"213","latitude":"4.022424","longitude":"101.020622","status":"1","plantocounts":"2","beentocounts":"22","livedcounts":"1"},{"id":"13654","city_name":"\u5b89\u65af\u5fb7\u767b","en_name":"Twisteden","pingyin":"ansidedeng","country_id":"15","latitude":"51.552929","longitude":"6.214180","status":"1","plantocounts":"0","beentocounts":"0","livedcounts":"0"},{"id":"13655","city_name":"\u5b89\u65af\u83f2\u5c14\u767b","en_name":"Ansfelden","pingyin":"ansifeierdeng","country_id":"198","latitude":"48.207729","longitude":"14.291273","status":"1","plantocounts":"0","beentocounts":"2","livedcounts":"0"},{"id":"13656","city_name":"\u5b89\u65af\u57fa\u5fb7","en_name":"Enskede","pingyin":"ansijide","country_id":"202","latitude":"59.283333","longitude":"18.066668","status":"1","plantocounts":"0","beentocounts":"2","livedcounts":"0"},{"id":"8756","city_name":"\u5b89\u65af\u7279\u62c9\u745f","en_name":"Anstruther","pingyin":"ansitelase","country_id":"13","latitude":"56.216667","longitude":"-2.700000","status":"1","plantocounts":"7","beentocounts":"19","livedcounts":"0"},{"id":"7773","city_name":"\u5b89\u5854\u62c9\u54c8","en_name":"Antalaha","pingyin":"antalaha","country_id":"496","latitude":"-14.883333","longitude":"50.283333","status":"1","plantocounts":"5","beentocounts":"17","livedcounts":"0"},{"id":"8906","city_name":"\u5b89\u5854\u5229\u4e9a","en_name":"Antalya","pingyin":"antaliya","country_id":"195","latitude":"36.912498","longitude":"30.689722","status":"1","plantocounts":"1574","beentocounts":"7178","livedcounts":"2"},{"id":"7787","city_name":"\u5b89\u5854\u90a3\u90a3\u5229\u4f5b","en_name":"Antananarivo","pingyin":"antananalidaotuomu","country_id":"496","latitude":"-18.914871","longitude":"47.531612","status":"1","plantocounts":"82","beentocounts":"252","livedcounts":"0"},{"id":"15263","city_name":"\u5b89\u66c7\u91ce\u5e02","en_name":"Azumino","pingyin":"antanye","country_id":"14","latitude":"36.302944","longitude":"137.899628","status":"1","plantocounts":"2","beentocounts":"13","livedcounts":"0"},{"id":"13657","city_name":"\u5b89\u7279\u7279\u6cfd","en_name":"Unterterzen","pingyin":"anteteze","country_id":"524","latitude":"47.113071","longitude":"9.251160","status":"1","plantocounts":"0","beentocounts":"0","livedcounts":"0"},{"id":"6893","city_name":"\u5b89\u7279\u536b\u666e","en_name":"Antwerp","pingyin":"anteweipu","country_id":"424","latitude":"51.216667","longitude":"4.416667","status":"1","plantocounts":"707","beentocounts":"6254","livedcounts":"9"},{"id":"10083","city_name":"\u5b89\u63d0\u8d1d","en_name":"Antibes","pingyin":"antibei","country_id":"186","latitude":"43.580044","longitude":"7.125188","status":"1","plantocounts":"92","beentocounts":"985","livedcounts":"6"},{"id":"6529","city_name":"\u5b89\u63d0\u74dc\u5c9b","en_name":"Antigua","pingyin":"antiguadao","country_id":"410","latitude":"17.074656","longitude":"-61.817520","status":"1","plantocounts":"5","beentocounts":"49","livedcounts":"0"},{"id":"8937","city_name":"\u5b89\u63d0\u74dc","en_name":"Antigua","pingyin":"antiguadao","country_id":"555","latitude":"14.561111","longitude":"-90.734444","status":"1","plantocounts":"56","beentocounts":"293","livedcounts":"0"},