[{"section":"a","list":[{"city_id":"11752","city_name":"\u963f\u575d\u5dde","en_name":"Aba","pingyin":"aba","latitude":"31.899412","longitude":"102.224655","ctry_id":"11","country_name":"\u4e2d\u56fd"},{"city_id":"7092","city_name":"\u963f\u5df4\u574e","en_name":"Abakan","pingyin":"abakan","latitude":"53.715557","longitude":"91.429169","ctry_id":"208","country_name":"\u4fc4\u7f57\u65af"},{"city_id":"10729","city_name":"\u963f\u5df4\u65af\u6e2f","en_name":"Bandar Abbas","pingyin":"abasigang","latitude":"27.183332","longitude":"56.266666","ctry_id":"568","country_name":"\u4f0a\u6717"},{"city_id":"11202","city_name":"\u963f\u6bd4\u7eb3\u5e15\u4fdd\u62a4\u533a","en_name":"Api Nampa Conservation Area","pingyin":"abinapabaohuqu","latitude":"29.936346","longitude":"80.898651","ctry_id":"220","country_name":"\u5c3c\u6cca\u5c14"},{"city_id":"7698","city_name":"\u963f\u6bd4\u8ba9","en_name":"Abidjan","pingyin":"abirang","latitude":"5.341111","longitude":"-4.028056","ctry_id":"480","country_name":"\u79d1\u7279\u8fea\u74e6"},{"city_id":"8623","city_name":"\u963f\u6bd4\u65af\u5e93","en_name":"Abisko","pingyin":"abisiku","latitude":"68.333336","longitude":"18.850000","ctry_id":"202","country_name":"\u745e\u5178"},{"city_id":"10488","city_name":"\u963f\u4f2f\u5fb7\u5c14\u56fd\u5bb6\u516c\u56ed","en_name":"Aberdare National Park","pingyin":"abodeerguojiagongyuan","latitude":"-0.416667","longitude":"36.666668","ctry_id":"483","country_name":"\u80af\u5c3c\u4e9a"},{"city_id":"8751","city_name":"\u963f\u4f2f\u4e01","en_name":"Aberdeen","pingyin":"aboding","latitude":"57.133331","longitude":"-2.100000","ctry_id":"13","country_name":"\u82f1\u56fd"},{"city_id":"8949","city_name":"\u963f\u4f2f\u91cc\u65af\u7279\u5a01\u65af","en_name":"Aberystwyth","pingyin":"abolisiteweisi","latitude":"52.416668","longitude":"-4.066667","ctry_id":"13","country_name":"\u82f1\u56fd"},{"city_id":"10325","city_name":"\u963f\u6ce2\u7f57\u5c0f\u9547","en_name":"Apollo Bay","pingyin":"aboluoxiaozhen","latitude":"-38.757168","longitude":"143.669617","ctry_id":"240","country_name":"\u6fb3\u5927\u5229\u4e9a"},{"city_id":"10924","city_name":"\u963f\u6ce2\u7f8e","en_name":"Abomey","pingyin":"abomei","latitude":"7.183616","longitude":"1.988992","ctry_id":"423","country_name":"\u8d1d\u5b81"},{"city_id":"8438","city_name":"\u963f\u5e03\u8d3e","en_name":"Abuja","pingyin":"abujia","latitude":"9.072784","longitude":"7.482957","ctry_id":"520","country_name":"\u5c3c\u65e5\u5229\u4e9a"},{"city_id":"13236","city_name":"\u963f\u5e03\u9c81\u4f50\u5927\u533a","en_name":"Abruzzo","pingyin":"abuluzuodaqu","latitude":"42.192013","longitude":"13.728917","ctry_id":"189","country_name":"\u610f\u5927\u5229"},{"city_id":"10001","city_name":"\u963f\u5e03\u5c71","en_name":"Mount Abu","pingyin":"abushan","latitude":"24.592501","longitude":"72.715553","ctry_id":"231","country_name":"\u5370\u5ea6"},{"city_id":"10480","city_name":"\u963f\u5e03\u8f9b\u8d1d","en_name":"Abu Simbel","pingyin":"abuxinbei","latitude":"22.374437","longitude":"31.602772","ctry_id":"244","country_name":"\u57c3\u53ca"},{"city_id":"6403","city_name":"\u963f\u5e03\u624e\u6bd4","en_name":"Abu dhabi","pingyin":"abuzhabi","latitude":"24.466667","longitude":"54.366669","ctry_id":"402","country_name":"\u963f\u8054\u914b"},{"city_id":"12328","city_name":"\u963f\u57ce","en_name":"Acheng","pingyin":"acheng","latitude":"45.548672","longitude":"126.958099","ctry_id":"11","country_name":"\u4e2d\u56fd"},{"city_id":"11387","city_name":"\u963f\u8fbe\u7eb3","en_name":"Adana","pingyin":"adana","latitude":"37.000000","longitude":"35.321335","ctry_id":"195","country_name":"\u571f\u8033\u5176"},{"city_id":"6591","city_name":"\u963f\u5fb7\u83b1\u5fb7","en_name":"Adelaide","pingyin":"adelaide","latitude":"-34.933334","longitude":"138.600006","ctry_id":"240","country_name":"\u6fb3\u5927\u5229\u4e9a"},{"city_id":"10815","city_name":"\u963f\u5fb7\u4e9a\u66fc","en_name":"Adiyaman","pingyin":"adeyaman","latitude":"37.764751","longitude":"38.278561","ctry_id":"195","country_name":"\u571f\u8033\u5176"},{"city_id":"13542","city_name":"\u963f\u5c14\u5df4\u62c9\u8f9b","en_name":"Albarrac\u00edn","pingyin":"aerbalaxin","latitude":"40.407558","longitude":"-1.443876","ctry_id":"182","country_name":"\u897f\u73ed\u7259"},{"city_id":"7881","city_name":"\u963f\u5c14\u5df4\u5c3c","en_name":"Albany","pingyin":"aerbani","latitude":"42.652580","longitude":"-73.756233","ctry_id":"236","country_name":"\u7f8e\u56fd"},{"city_id":"13545","city_name":"\u963f\u5c14\u5351\u5df4\u8d6b","en_name":"Alpbach","pingyin":"aerbeibahe","latitude":"47.399101","longitude":"11.943141","ctry_id":"198","country_name":"\u5965\u5730\u5229"},{"city_id":"11124","city_name":"\u963f\u5c14\u8d1d\u62c9","en_name":"Arbil","pingyin":"aerbeila","latitude":"36.191113","longitude":"44.009167","ctry_id":"1035","country_name":"\u4f0a\u62c9\u514b"},{"city_id":"9268","city_name":"\u963f\u5c14\u8d1d\u7f57\u8d1d\u6d1b","en_name":"Alberobello","pingyin":"aerbeiluobeiluo","latitude":"40.786423","longitude":"17.240931","ctry_id":"189","country_name":"\u610f\u5927\u5229"},{"city_id":"6860","city_name":"\u963f\u5c14\u8d1d\u7eb3","en_name":"Albena","pingyin":"aerbeina","latitude":"43.366596","longitude":"28.079473","ctry_id":"421","country_name":"\u4fdd\u52a0\u5229\u4e9a"},{"city_id":"13139","city_name":"\u963f\u5c14\u8d1d\u7ef4\u5c14","en_name":"Albertville","pingyin":"aerbeiweier","latitude":"45.675533","longitude":"6.392726","ctry_id":"186","country_name":"\u6cd5\u56fd"},{"city_id":"7191","city_name":"\u963f\u5c14\u6bd4","en_name":"Albi","pingyin":"aerbiaerbi","latitude":"43.933334","longitude":"2.150000","ctry_id":"186","country_name":"\u6cd5\u56fd"},{"city_id":"11094","city_name":"\u963f\u5c14\u5e03\u8d39\u62c9","en_name":"Albufeira","pingyin":"aerbufeila","latitude":"37.089073","longitude":"-8.247880","ctry_id":"523","country_name":"\u8461\u8404\u7259"},{"city_id":"7864","city_name":"\u963f\u5c14\u4f2f\u514b\u57fa","en_name":"Albuquerque","pingyin":"aerbukaike","latitude":"35.084442","longitude":"-106.650558","ctry_id":"236","country_name":"\u7f8e\u56fd"},{"city_id":"10880","city_name":"\u963f\u5c14\u8fbe\u6bd4\u52d2","en_name":"Ardabil","pingyin":"aerdabile","latitude":"38.246471","longitude":"48.295052","ctry_id":"568","country_name":"\u4f0a\u6717"},{"city_id":"9269","city_name":"\u963f\u5c14\u76d6\u7f57","en_name":"Alghero","pingyin":"aergailuo","latitude":"40.558887","longitude":"8.318056","ctry_id":"189","country_name":"\u610f\u5927\u5229"},{"city_id":"13185","city_name":"\u963f\u5c14\u9ad8\u5dde","en_name":"Kanton Aargau","pingyin":"aergaozhou","latitude":"47.387665","longitude":"8.255429","ctry_id":"524","country_name":"\u745e\u58eb"},{"city_id":"11232","city_name":"\u963f\u5c14\u6208\u65af","en_name":"Argos","pingyin":"aergesi","latitude":"37.635174","longitude":"22.728859","ctry_id":"206","country_name":"\u5e0c\u814a"},{"city_id":"9066","city_name":"\u963f\u5c14\u8d6b\u897f\u62c9\u65af","en_name":"Algeciras","pingyin":"aerhexilasi","latitude":"36.127499","longitude":"-5.453889","ctry_id":"182","country_name":"\u897f\u73ed\u7259"},{"city_id":"6326","city_name":"\u963f\u5c14\u53ca\u5c14","en_name":"Algiers","pingyin":"aerjier","latitude":"36.763058","longitude":"3.050556","ctry_id":"400","country_name":"\u963f\u5c14\u53ca\u5229\u4e9a"},{"city_id":"11190","city_name":"\u963f\u5c14\u79d1\u5df4\u8428","en_name":"Alcoba\u00e7a","pingyin":"aerkebasa","latitude":"39.548668","longitude":"-8.979649","ctry_id":"523","country_name":"\u8461\u8404\u7259"},{"city_id":"10138","city_name":"\u963f\u5c14\u514b\u9a6c\u5c14","en_name":"Alkmaar","pingyin":"aerkemaer","latitude":"52.632282","longitude":"4.750806","ctry_id":"200","country_name":"\u8377\u5170"},{"city_id":"13553","city_name":"\u963f\u5c14\u79d1\u65af-\u5fb7\u62c9\u5f17\u9f99\u7279\u62c9","en_name":"Arcos de la Frontera","pingyin":"aerkesidelafulongtela","latitude":"36.756004","longitude":"-5.811652","ctry_id":"182","country_name":"\u897f\u73ed\u7259"},{"city_id":"7192","city_name":"\u963f\u5c14\u52d2","en_name":"Arles","pingyin":"aerle","latitude":"43.676674","longitude":"4.627502","ctry_id":"186","country_name":"\u6cd5\u56fd"},{"city_id":"13554","city_name":"\u963f\u5c14\u6885\u52d2","en_name":"Almere","pingyin":"aermeile","latitude":"52.350784","longitude":"5.264702","ctry_id":"200","country_name":"\u8377\u5170"},{"city_id":"7255","city_name":"\u963f\u5c14\u8428\u65af","en_name":"Alsace","pingyin":"aersasi","latitude":"48.318180","longitude":"7.441624","ctry_id":"186","country_name":"\u6cd5\u56fd"},{"city_id":"11625","city_name":"\u963f\u5c14\u5c71","en_name":"Aershan","pingyin":"aershan","latitude":"47.177399","longitude":"119.943535","ctry_id":"11","country_name":"\u4e2d\u56fd"},{"city_id":"8439","city_name":"\u963f\u5c14\u5854","en_name":"Alta","pingyin":"aerta","latitude":"69.966667","longitude":"23.241667","ctry_id":"521","country_name":"\u632a\u5a01"},{"city_id":"8209","city_name":"\u963f\u5c14\u6cf0","en_name":"Altai","pingyin":"aertai","latitude":"46.373512","longitude":"96.255737","ctry_id":"507","country_name":"\u8499\u53e4"},{"city_id":"9410","city_name":"\u963f\u5c14\u74e6\u5c14","en_name":"Alwar","pingyin":"aerwaer","latitude":"27.566668","longitude":"76.599998","ctry_id":"231","country_name":"\u5370\u5ea6"},{"city_id":"61","city_name":"\u963f\u683c\u62c9","en_name":"Agra ","pingyin":"agela","latitude":"27.176670","longitude":"78.008072","ctry_id":"231","country_name":"\u5370\u5ea6"},{"city_id":"9271","city_name":"\u963f\u683c\u91cc\u771f\u6258","en_name":"Agrigento","pingyin":"agelizhentuo","latitude":"37.316666","longitude":"13.566667","ctry_id":"189","country_name":"\u610f\u5927\u5229"},{"city_id":"6905","city_name":"\u963f\u74dc\u8fea\u4e9a","en_name":"Aguadilla","pingyin":"aguadiya","latitude":"18.427444","longitude":"-67.154068","ctry_id":"426","country_name":"\u6ce2\u591a\u9ece\u5404"},{"city_id":"8300","city_name":"\u963f\u74dc\u65af\u5361\u8fde\u7279\u65af","en_name":"Aguascalientes","pingyin":"aguasikaliantesi","latitude":"21.883333","longitude":"-102.300003","ctry_id":"515","country_name":"\u58a8\u897f\u54e5"},{"city_id":"9871","city_name":"\u963f\u54c8\u5c14\u9f50\u8d6b","en_name":"Akhaltsikhe","pingyin":"ahaerqihe","latitude":"41.638889","longitude":"42.986111","ctry_id":"457","country_name":"\u683c\u9c81\u5409\u4e9a"},{"city_id":"8522","city_name":"\u963f\u5bd2\u56fd\u7acb\u516c\u56ed","en_name":"Akan national park","pingyin":"ahanguoligongyuan","latitude":"43.433647","longitude":"144.086700","ctry_id":"14","country_name":"\u65e5\u672c"},{"city_id":"15492","city_name":"\u963f\u6d2a\u52a0\u62c9","en_name":"Ahungalla","pingyin":"ahongjiala","latitude":"6.313278","longitude":"80.040916","ctry_id":"537","country_name":"\u65af\u91cc\u5170\u5361"},{"city_id":"13138","city_name":"\u7231\u5965\u90a3\u5c9b","en_name":"Isle of Iona","pingyin":"aiaonadao","latitude":"56.334728","longitude":"-6.404100","ctry_id":"13","country_name":"\u82f1\u56fd"},{"city_id":"10176","city_name":"\u57c3\u4f2f\u5c14\u63aa\u592b\u7279","en_name":"Ebeltoft","pingyin":"aiboercuofute","latitude":"56.196327","longitude":"10.677857","ctry_id":"205","country_name":"\u4e39\u9ea6"},{"city_id":"7512","city_name":"\u827e\u4f2f\u5854\u7701","en_name":"Alberta","pingyin":"aibotasheng","latitude":"55.000000","longitude":"-115.000000","ctry_id":"238","country_name":"\u52a0\u62ff\u5927"},{"city_id":"13641","city_name":"\u7231\u8fbe\u8377\u798f\u5c14\u65af","en_name":"Idaho Falls","pingyin":"aidahefuersi","latitude":"43.491650","longitude":"-112.033966","ctry_id":"236","country_name":"\u7f8e\u56fd"},{"city_id":"7877","city_name":"\u7231\u8fbe\u8377\u5dde","en_name":"Idaho","pingyin":"aidahezhou","latitude":"44.068203","longitude":"-114.742043","ctry_id":"236","country_name":"\u7f8e\u56fd"},{"city_id":"13599","city_name":"\u57c3\u5fb7","en_name":"Ede","pingyin":"aide","latitude":"52.040169","longitude":"5.664859","ctry_id":"200","country_name":"\u8377\u5170"},{"city_id":"8442","city_name":"\u57c3\u5fb7\u5ce1\u6e7e","en_name":"Eidfjord","pingyin":"aidefeiyouer","latitude":"60.466667","longitude":"7.083333","ctry_id":"521","country_name":"\u632a\u5a01"},{"city_id":"10455","city_name":"\u7231\u5fb7\u534e\u4eb2\u738b\u70b9","en_name":"King Edward Point","pingyin":"aidehuaqinwangdian","latitude":"-54.283794","longitude":"-36.496067","ctry_id":"1762","country_name":"\u5357\u4e54\u6cbb\u4e9a\u5c9b\u548c\u5357\u6851\u5a01\u5947\u7fa4\u5c9b"},{"city_id":"11216","city_name":"\u7231\u5fb7\u534e\u738b\u5b50\u5c9b","en_name":"Prince Edward Island","pingyin":"aidehuawangzidao","latitude":"46.250000","longitude":"-63.000000","ctry_id":"238","country_name":"\u52a0\u62ff\u5927"},{"city_id":"7510","city_name":"\u57c3\u5fb7\u8499\u987f","en_name":"Edmonton","pingyin":"aidemengdun","latitude":"53.549999","longitude":"-113.500000","ctry_id":"238","country_name":"\u52a0\u62ff\u5927"},{"city_id":"8903","city_name":"\u57c3\u8fea\u5c14\u5185","en_name":"Edirne","pingyin":"aidiernei","latitude":"41.681808","longitude":"26.562269","ctry_id":"195","country_name":"\u571f\u8033\u5176"},{"city_id":"8755","city_name":"\u7231\u4e01\u5821","en_name":"Edinburgh","pingyin":"aidingbao","latitude":"55.953251","longitude":"-3.188267","ctry_id":"13","country_name":"\u82f1\u56fd"},{"city_id":"6405","city_name":"\u827e\u6069","en_name":"Al ain","pingyin":"aien","latitude":"24.191668","longitude":"55.760555","ctry_id":"402","country_name":"\u963f\u8054\u914b"},{"city_id":"9547","city_name":"\u827e\u6069\u5e03\u91cc\u5947\u5ce1","en_name":"Ironbridge gorge","pingyin":"aienbuliqixia","latitude":"52.638397","longitude":"-2.495232","ctry_id":"13","country_name":"\u82f1\u56fd"},{"city_id":"8753","city_name":"\u827e\u5c14","en_name":"Ayr","pingyin":"aier","latitude":"55.450001","longitude":"-4.616667","ctry_id":"13","country_name":"\u82f1\u56fd"},{"city_id":"13601","city_name":"\u57c3\u5c14\u963f\u96f7\u7eb3\u5c14","en_name":"El Arenal","pingyin":"aieraleinaer","latitude":"40.266899","longitude":"-5.085248","ctry_id":"182","country_name":"\u897f\u73ed\u7259"},{"city_id":"9277","city_name":"\u57c3\u5c14\u5df4","en_name":"Elba","pingyin":"aierba","latitude":"42.778187","longitude":"10.192739","ctry_id":"189","country_name":"\u610f\u5927\u5229"},{"city_id":"13602","city_name":"\u57c3\u5c14\u4e01","en_name":"Erding","pingyin":"aierding","latitude":"48.311466","longitude":"11.918876","ctry_id":"15","country_name":"\u5fb7\u56fd"},{"city_id":"7711","city_name":"\u57c3\u5c14\u591a\u96f7\u7279","en_name":"Eldoret","pingyin":"aierduoleite","latitude":"0.516667","longitude":"35.283333","ctry_id":"483","country_name":"\u80af\u5c3c\u4e9a"},{"city_id":"7022","city_name":"\u7231\u5c14\u798f\u7279","en_name":"Erfurt","pingyin":"aierfute","latitude":"50.983334","longitude":"11.033333","ctry_id":"15","country_name":"\u5fb7\u56fd"},{"city_id":"13603","city_name":"\u57c3\u5c14\u54e5\u8328\u62c9","en_name":"Il-G\u017cira","pingyin":"aiergecila","latitude":"35.905895","longitude":"14.495334","ctry_id":"498","country_name":"\u9a6c\u8033\u4ed6"},{"city_id":"6401","city_name":"\u57c3\u5c14\u5361\u62c9\u6cd5\u7279","en_name":"El calafate","pingyin":"aierkalafate","latitude":"-50.333332","longitude":"-72.300003","ctry_id":"243","country_name":"\u963f\u6839\u5ef7"},{"city_id":"11507","city_name":"\u57c3\u5c14\u79d1","en_name":"Elko","pingyin":"aierke","latitude":"40.832420","longitude":"-115.763123","ctry_id":"236","country_name":"\u7f8e\u56fd"},{"city_id":"10850","city_name":"\u57c3\u5c14\u514b\u592b","en_name":"El Kef","pingyin":"aierkefu","latitude":"36.179272","longitude":"8.714140","ctry_id":"550","country_name":"\u7a81\u5c3c\u65af"},{"city_id":"15811","city_name":"\u57c3\u5c14\u5170\u6839","en_name":"Erlangen","pingyin":"aierlangen","latitude":"49.589676","longitude":"11.011961","ctry_id":"15","country_name":"\u5fb7\u56fd"},{"city_id":"6719","city_name":"\u827e\u5c14\u5229\u6d77\u6ee9","en_name":"Airlie beach","pingyin":"aierlihaitan","latitude":"-20.268721","longitude":"148.718460","ctry_id":"240","country_name":"\u6fb3\u5927\u5229\u4e9a"},{"city_id":"13604","city_name":"\u57c3\u5c14\u6bdb","en_name":"Ellmau","pingyin":"aiermao","latitude":"47.514786","longitude":"12.302258","ctry_id":"198","country_name":"\u5965\u5730\u5229"},{"city_id":"7259","city_name":"\u7231\u59ae\u5c9b","en_name":"El nido","pingyin":"aierniduo","latitude":"11.185833","longitude":"119.395554","ctry_id":"446","country_name":"\u83f2\u5f8b\u5bbe"},{"city_id":"7875","city_name":"\u57c3\u5c14\u5e15\u7d22","en_name":"El paso","pingyin":"aierpasuo","latitude":"31.758720","longitude":"-106.486931","ctry_id":"236","country_name":"\u7f8e\u56fd"},{"city_id":"6402","city_name":"\u827e\u5c14\u6070\u767b","en_name":"El chalten","pingyin":"aierqiadeng","latitude":"-49.331493","longitude":"-72.886322","ctry_id":"243","country_name":"\u963f\u6839\u5ef7"},{"city_id":"13606","city_name":"\u57c3\u5c14\u5207","en_name":"Elche","pingyin":"aierqie","latitude":"38.269932","longitude":"-0.712561","ctry_id":"182","country_name":"\u897f\u73ed\u7259"},{"city_id":"13608","city_name":"\u57c3\u5c14\u585e\u8d21\u591a","en_name":"El Segundo","pingyin":"aiersaigongduo","latitude":"33.919182","longitude":"-118.416466","ctry_id":"236","country_name":"\u7f8e\u56fd"},{"city_id":"8904","city_name":"\u57c3\u5c14\u7956\u9c81\u59c6","en_name":"Erzurum","pingyin":"aierzulumu","latitude":"39.908611","longitude":"41.276943","ctry_id":"195","country_name":"\u571f\u8033\u5176"},{"city_id":"9178","city_name":"\u57c3\u683c\u5c14","en_name":"Eger","pingyin":"aigeer","latitude":"47.900002","longitude":"20.383333","ctry_id":"207","country_name":"\u5308\u7259\u5229"},{"city_id":"13612","city_name":"\u57c3\u683c\u59c6","en_name":"Egham","pingyin":"aigemu","latitude":"51.428825","longitude":"-0.547876","ctry_id":"13","country_name":"\u82f1\u56fd"},{"city_id":"10231","city_name":"\u827e\u54c8\u8fc8\u8fbe\u5df4\u5fb7","en_name":"Ahmedabad","pingyin":"aihamaidabade","latitude":"23.039568","longitude":"72.566002","ctry_id":"231","country_name":"\u5370\u5ea6"},{"city_id":"7876","city_name":"\u7231\u8377\u534e\u5dde","en_name":"Iowa","pingyin":"aihehuazhou","latitude":"41.878002","longitude":"-93.097702","ctry_id":"236","country_name":"\u7f8e\u56fd"},{"city_id":"9544","city_name":"\u57c3\u514b\u585e\u7279","en_name":"Exeter","pingyin":"aikesaite","latitude":"50.700001","longitude":"-3.533333","ctry_id":"13","country_name":"\u82f1\u56fd"},{"city_id":"10148","city_name":"\u827e\u514b\u65af","en_name":"Aix en Provence","pingyin":"aikesi","latitude":"43.529743","longitude":"5.447427","ctry_id":"186","country_name":"\u6cd5\u56fd"},{"city_id":"13634","city_name":"\u827e\u514b\u65af\u83b1\u73ed","en_name":"Aix-les-Bains","pingyin":"aikesilaiban","latitude":"45.692341","longitude":"5.908998","ctry_id":"186","country_name":"\u6cd5\u56fd"},{"city_id":"6595","city_name":"\u57c3\u514b\u65af\u8305\u65af","en_name":"Exmouth","pingyin":"aikesimaosi","latitude":"-21.933332","longitude":"114.133331","ctry_id":"240","country_name":"\u6fb3\u5927\u5229\u4e9a"},{"city_id":"10413","city_name":"\u57c3\u514b\u82cf\u9a6c\u5c9b","en_name":"Exuma","pingyin":"aikesumadao","latitude":"23.619261","longitude":"-75.969543","ctry_id":"413","country_name":"\u5df4\u54c8\u9a6c"},{"city_id":"8700","city_name":"\u57c3\u52d2","en_name":"Ella","pingyin":"aila","latitude":"6.873760","longitude":"81.049026","ctry_id":"537","country_name":"\u65af\u91cc\u5170\u5361"},{"city_id":"11452","city_name":"\u827e\u83b1\u5c9b","en_name":"Islay","pingyin":"ailaidao","latitude":"55.736252","longitude":"-6.177067","ctry_id":"13","country_name":"\u82f1\u56fd"},{"city_id":"10596","city_name":"\u57c3\u62c9\u7279","en_name":"Eilat","pingyin":"ailate","latitude":"29.557669","longitude":"34.951923","ctry_id":"569","country_name":"\u4ee5\u8272\u5217"},{"city_id":"7356","city_name":"\u57c3\u96f7\u8fea\u4e9a","en_name":"Heredia","pingyin":"aileidiya","latitude":"10.000000","longitude":"-84.116669","ctry_id":"454","country_name":"\u54e5\u65af\u8fbe\u9ece\u52a0"},{"city_id":"10884","city_name":"\u57c3\u91cc\u8fea\u5c14","en_name":"E\u011firdir","pingyin":"ailidier","latitude":"37.874416","longitude":"30.836973","ctry_id":"195","country_name":"\u571f\u8033\u5176"},{"city_id":"9278","city_name":"\u57c3\u91cc\u585e","en_name":"Erice","pingyin":"ailisai","latitude":"38.033333","longitude":"12.583333","ctry_id":"189","country_name":"\u610f\u5927\u5229"},{"city_id":"6596","city_name":"\u7231\u4e3d\u65af\u6cc9","en_name":"Alice springs","pingyin":"ailisiquan","latitude":"-23.700211","longitude":"133.880615","ctry_id":"240","country_name":"\u6fb3\u5927\u5229\u4e9a"},{"city_id":"10382","city_name":"\u57c3\u5229\u65af\u5854","en_name":"Elista","pingyin":"ailisita","latitude":"46.308502","longitude":"44.254295","ctry_id":"208","country_name":"\u4fc4\u7f57\u65af"},{"city_id":"9227","city_name":"\u57c3\u91cc\u6e29","en_name":"Yerevan","pingyin":"ailiwen","latitude":"40.181110","longitude":"44.513611","ctry_id":"566","country_name":"\u4e9a\u7f8e\u5c3c\u4e9a"},{"city_id":"10228","city_name":"\u57c3\u6d1b\u62c9","en_name":"Ellora","pingyin":"ailuola","latitude":"20.023825","longitude":"75.161835","ctry_id":"231","country_name":"\u5370\u5ea6"},{"city_id":"13636","city_name":"\u827e\u6e44\u6e7e","en_name":"Amed","pingyin":"aimeiwan","latitude":"-8.324584","longitude":"115.648018","ctry_id":"570","country_name":"\u5370\u5ea6\u5c3c\u897f\u4e9a"},{"city_id":"11318","city_name":"\u7231\u8499\u5854\u5c14","en_name":"Emmental","pingyin":"aimengtaer","latitude":"46.984638","longitude":"7.762380","ctry_id":"524","country_name":"\u745e\u58eb"},{"city_id":"13241","city_name":"\u827e\u7c73\u5229\u4e9a-\u7f57\u9a6c\u6d85\u5927\u533a","en_name":"Emilia-Romagna","pingyin":"aimiliyaluomaniedaqu","latitude":"44.596760","longitude":"11.218640","ctry_id":"189","country_name":"\u610f\u5927\u5229"},{"city_id":"8302","city_name":"\u57c3\u83ab\u897f\u7ea6","en_name":"Hermosillo","pingyin":"aimoxiyue","latitude":"29.089186","longitude":"-110.961327","ctry_id":"515","country_name":"\u58a8\u897f\u54e5"},{"city_id":"11418","city_name":"\u57c3\u7eb3\u96f7\u65af\u5821","en_name":"Alcal\u00e1 de Henares","pingyin":"ainaleisibao","latitude":"40.481979","longitude":"-3.363542","ctry_id":"182","country_name":"\u897f\u73ed\u7259"},{"city_id":"13038","city_name":"\u57c3\u4f69\u5c14\u5948","en_name":"\u00c9pernay","pingyin":"aipeiernai","latitude":"49.043411","longitude":"3.956242","ctry_id":"186","country_name":"\u6cd5\u56fd"},{"city_id":"11238","city_name":"\u57c3\u76ae\u8fbe\u9c81\u65af","en_name":"Epidaurus","pingyin":"aipidalusi","latitude":"37.637489","longitude":"23.155804","ctry_id":"206","country_name":"\u5e0c\u814a"},{"city_id":"8929","city_name":"\u57c3\u76ae\u5c9b","en_name":"Epi","pingyin":"aipidao","latitude":"-16.741098","longitude":"168.270401","ctry_id":"554","country_name":"\u74e6\u52aa\u963f\u56fe"},{"city_id":"10806","city_name":"\u57c3\u5947\u7c73\u4e9a\u6d25","en_name":"Echmiadzin","pingyin":"aiqimiyajin","latitude":"40.172779","longitude":"44.292500","ctry_id":"566","country_name":"\u4e9a\u7f8e\u5c3c\u4e9a"},{"city_id":"13342","city_name":"Aireys Inlet","en_name":"Aireys Inlet","pingyin":"Aireys Inlet","latitude":"-38.457088","longitude":"144.107208","ctry_id":"240","country_name":"\u6fb3\u5927\u5229\u4e9a"},{"city_id":"7021","city_name":"\u57c3\u68ee","en_name":"Essen","pingyin":"aisen","latitude":"51.454327","longitude":"7.004802","ctry_id":"15","country_name":"\u5fb7\u56fd"},{"city_id":"10682","city_name":"\u827e\u68ee\u7eb3\u8d6b","en_name":"Eisenach","pingyin":"aisennahe","latitude":"50.980255","longitude":"10.315619","ctry_id":"15","country_name":"\u5fb7\u56fd"},{"city_id":"6534","city_name":"\u827e\u68ee\u65bd\u5854\u7279","en_name":"Eisenstadt","pingyin":"aisenshitate","latitude":"47.849998","longitude":"16.516666","ctry_id":"198","country_name":"\u5965\u5730\u5229"},{"city_id":"7006","city_name":"\u57c3\u65af\u6bd4\u7ea6","en_name":"Esbjerg","pingyin":"aisibiyue","latitude":"55.466667","longitude":"8.450000","ctry_id":"205","country_name":"\u4e39\u9ea6"},{"city_id":"13625","city_name":"\u57c3\u65af\u6ce2","en_name":"Espoo","pingyin":"aisibo","latitude":"60.205490","longitude":"24.655899","ctry_id":"448","country_name":"\u82ac\u5170"},{"city_id":"10883","city_name":"\u57c3\u65af\u57fa\u8c22\u5e0c\u5c14","en_name":"Eski\u015fehir","pingyin":"aisijixiexier","latitude":"39.776669","longitude":"30.520555","ctry_id":"195","country_name":"\u571f\u8033\u5176"},{"city_id":"8303","city_name":"\u57c3\u65af\u5b54\u8fea\u591a\u6e2f","en_name":"Puerto escondido","pingyin":"aisikongdiduogang","latitude":"15.865535","longitude":"-97.069450","ctry_id":"515","country_name":"\u58a8\u897f\u54e5"},{"city_id":"13627","city_name":"\u57c3\u65af\u6797\u6839","en_name":"Esslingen","pingyin":"aisilingen","latitude":"48.743343","longitude":"9.320112","ctry_id":"15","country_name":"\u5fb7\u56fd"},{"city_id":"7171","city_name":"\u57c3\u65af\u6885\u62c9\u8fbe\u65af","en_name":"Esmeraldas","pingyin":"aisimeiladasi","latitude":"0.950000","longitude":"-79.666664","ctry_id":"443","country_name":"\u5384\u74dc\u591a\u5c14"},{"city_id":"10302","city_name":"\u57c3\u65af\u4f69\u5170\u65af","en_name":"Esperance","pingyin":"aisipeilansi","latitude":"-33.859413","longitude":"121.893250","ctry_id":"240","country_name":"\u6fb3\u5927\u5229\u4e9a"},{"city_id":"9179","city_name":"\u57c3\u65af\u6cf0\u5c14\u6208\u59c6","en_name":"Esztergom","pingyin":"aisitaiergemu","latitude":"47.799999","longitude":"18.750000","ctry_id":"207","country_name":"\u5308\u7259\u5229"},{"city_id":"9000","city_name":"\u57c3\u65af\u7279\u89d2\u57ce","en_name":"Punta del este","pingyin":"aisitejiaocheng","latitude":"-34.966667","longitude":"-54.950001","ctry_id":"561","country_name":"\u4e4c\u62c9\u572d"},{"city_id":"9069","city_name":"\u57c3\u65af\u7279\u96f7\u9a6c\u675c\u62c9","en_name":"Extremadura","pingyin":"aisiteleimadula","latitude":"39.493740","longitude":"-6.067919","ctry_id":"182","country_name":"\u897f\u73ed\u7259"},{"city_id":"13628","city_name":"\u57c3\u65af\u6258\u5229\u5c14","en_name":"Estoril","pingyin":"aisituolier","latitude":"38.713314","longitude":"-9.393656","ctry_id":"523","country_name":"\u8461\u8404\u7259"},{"city_id":"10005","city_name":"\u57c3\u7279\u52d2\u5854","en_name":"Etretat","pingyin":"aiteleta","latitude":"49.707199","longitude":"0.207500","ctry_id":"186","country_name":"\u6cd5\u56fd"},{"city_id":"10542","city_name":"\u827e\u56fe\u5854\u57fa","en_name":"Aitutaki","pingyin":"aitutaji","latitude":"-18.849115","longitude":"-159.782303","ctry_id":"484","country_name":"\u5e93\u514b\u7fa4\u5c9b"},{"city_id":"10236","city_name":"\u57c3\u6b66\u62c9","en_name":"Evora","pingyin":"aiwula","latitude":"38.571430","longitude":"-7.913502","ctry_id":"523","country_name":"\u8461\u8404\u7259"},{"city_id":"8283","city_name":"\u827e\u897f\u62c9","en_name":"Asilah","pingyin":"aixila","latitude":"35.465557","longitude":"-6.040278","ctry_id":"513","country_name":"\u6469\u6d1b\u54e5"},{"city_id":"15420","city_name":"\u827e\u5e0c\u62c9","en_name":"Assilah","pingyin":"aixila","latitude":"35.470001","longitude":"-6.030000","ctry_id":"513","country_name":"\u6469\u6d1b\u54e5"},{"city_id":"7752","city_name":"\u57c3\u5e0c\u7279\u7eb3\u8d6b","en_name":"Echternach","pingyin":"aixitenahe","latitude":"49.805557","longitude":"6.422222","ctry_id":"493","country_name":"\u5362\u68ee\u5821"},{"city_id":"10966","city_name":"\u57c3\u4f0a\u5c14\u65af\u5854\u6d4e","en_name":"Egilssta\u00f0ir","pingyin":"aiyiersitaji","latitude":"65.266876","longitude":"-14.394847","ctry_id":"425","country_name":"\u51b0\u5c9b"},{"city_id":"10788","city_name":"\u827e\u56e0\u76d6\u8fea","en_name":"Ein Gedi","pingyin":"aiyingaidi","latitude":"31.451191","longitude":"35.383572","ctry_id":"569","country_name":"\u4ee5\u8272\u5217"},{"city_id":"10127","city_name":"\u57c3\u56e0\u970d\u6e29","en_name":"Eindhoven","pingyin":"aiyinhuowen","latitude":"51.441643","longitude":"5.469722","ctry_id":"200","country_name":"\u8377\u5170"},{"city_id":"11350","city_name":"\u7231\u5a9b\u53bf","en_name":"Ehime-ken","pingyin":"aiyuan","latitude":"33.830788","longitude":"132.771866","ctry_id":"14","country_name":"\u65e5\u672c"},{"city_id":"8446","city_name":"\u827e\u4e8e\u5170","en_name":"Aurland","pingyin":"aiyulan","latitude":"60.903568","longitude":"7.201723","ctry_id":"521","country_name":"\u632a\u5a01"},{"city_id":"13048","city_name":"\u7231\u77e5\u53bf","en_name":"Aichi-ken","pingyin":"aizhixian","latitude":"35.180187","longitude":"136.906570","ctry_id":"14","country_name":"\u65e5\u672c"},{"city_id":"10075","city_name":"\u57c3\u5179","en_name":"\u00c9ze","pingyin":"aizi","latitude":"43.727818","longitude":"7.361792","ctry_id":"186","country_name":"\u6cd5\u56fd"},{"city_id":"8282","city_name":"\u963f\u52a0\u8fea\u5c14","en_name":"Agadir","pingyin":"ajiadier","latitude":"30.400000","longitude":"-9.600000","ctry_id":"513","country_name":"\u6469\u6d1b\u54e5"},{"city_id":"7380","city_name":"\u5df4\u7edf","en_name":"Batumi","pingyin":"ajiala","latitude":"41.638611","longitude":"41.637222","ctry_id":"457","country_name":"\u683c\u9c81\u5409\u4e9a"},{"city_id":"9411","city_name":"\u963f\u6770\u6885\u5c14","en_name":"Ajmer","pingyin":"ajiemeier","latitude":"26.450001","longitude":"74.633331","ctry_id":"231","country_name":"\u5370\u5ea6"},{"city_id":"6404","city_name":"\u963f\u5409\u66fc","en_name":"Ajman","pingyin":"ajiman","latitude":"25.403023","longitude":"55.491798","ctry_id":"402","country_name":"\u963f\u8054\u914b"},{"city_id":"13199","city_name":"\u963f\u57fa\u5766\u5927\u533a","en_name":"Region Aquitaine","pingyin":"ajitandaqu","latitude":"44.700222","longitude":"-0.299579","ctry_id":"186","country_name":"\u6cd5\u56fd"},{"city_id":"10160","city_name":"\u963f\u5361","en_name":"Akko","pingyin":"aka","latitude":"32.933052","longitude":"35.082680","ctry_id":"569","country_name":"\u4ee5\u8272\u5217"},{"city_id":"7865","city_name":"\u963f\u5361\u8fea\u4e9a\u56fd\u5bb6\u516c\u56ed","en_name":"Acadia national park","pingyin":"akadiyaguojiagongyuan","latitude":"44.338554","longitude":"-68.273338","ctry_id":"236","country_name":"\u7f8e\u56fd"},{"city_id":"10188","city_name":"\u963f\u5361\u7f57\u963f","en_name":"Akaroa","pingyin":"akaluoa","latitude":"-43.803665","longitude":"172.968262","ctry_id":"241","country_name":"\u65b0\u897f\u5170"},{"city_id":"10314","city_name":"\u963f\u5361\u666e\u5c14\u79d1","en_name":"Acapulco","pingyin":"akapuerke","latitude":"16.863794","longitude":"-99.881615","ctry_id":"515","country_name":"\u58a8\u897f\u54e5"},{"city_id":"7193","city_name":"\u963f\u5361\u96c4","en_name":"Arcachon","pingyin":"akaxiong","latitude":"44.652802","longitude":"-1.169200","ctry_id":"186","country_name":"\u6cd5\u56fd"},{"city_id":"7617","city_name":"\u963f\u514b\u62c9","en_name":"Accra","pingyin":"akela","latitude":"5.550000","longitude":"-0.216667","ctry_id":"471","country_name":"\u52a0\u7eb3"},{"city_id":"13326","city_name":"\u963f\u514b\u62c9\u5185\u65af","en_name":"Akranes","pingyin":"akelaneisi","latitude":"64.321922","longitude":"-22.070286","ctry_id":"425","country_name":"\u51b0\u5c9b"},{"city_id":"6901","city_name":"\u963f\u514b\u96f7\u91cc","en_name":"Akureyri","pingyin":"akeleili","latitude":"65.666664","longitude":"-18.100000","ctry_id":"425","country_name":"\u51b0\u5c9b"},{"city_id":"6433","city_name":"\u963f\u514b\u6d1b","en_name":"Arklow","pingyin":"akeluo","latitude":"52.793056","longitude":"-6.141389","ctry_id":"406","country_name":"\u7231\u5c14\u5170"},{"city_id":"7867","city_name":"\u963f\u80af\u8272","en_name":"Arkansas","pingyin":"akense","latitude":"35.201050","longitude":"-91.831833","ctry_id":"236","country_name":"\u7f8e\u56fd"},{"city_id":"12537","city_name":"\u963f\u514b\u585e","en_name":"Akesai","pingyin":"akesai","latitude":"39.633942","longitude":"94.340202","ctry_id":"11","country_name":"\u4e2d\u56fd"},{"city_id":"9828","city_name":"\u963f\u514b\u8428\u8d56","en_name":"Aksaray","pingyin":"akesalai","latitude":"38.368690","longitude":"34.036980","ctry_id":"195","country_name":"\u571f\u8033\u5176"},{"city_id":"13269","city_name":"\u963f\u514b\u4ec0\u80e1\u65af\u90e1","en_name":"Akershus","pingyin":"akeshenhusijun","latitude":"60.000019","longitude":"11.369030","ctry_id":"521","country_name":"\u632a\u5a01"},{"city_id":"11686","city_name":"\u963f\u514b\u82cf","en_name":"Akesu","pingyin":"akesu","latitude":"41.168777","longitude":"80.260605","ctry_id":"11","country_name":"\u4e2d\u56fd"},{"city_id":"6426","city_name":"\u963f\u514b\u82cf\u59c6","en_name":"Aksum","pingyin":"akesumu","latitude":"14.129722","longitude":"38.715832","ctry_id":"405","country_name":"\u57c3\u585e\u4fc4\u6bd4\u4e9a"},{"city_id":"7408","city_name":"\u963f\u514b\u5957","en_name":"Aktau","pingyin":"aketao","latitude":"43.635609","longitude":"51.171230","ctry_id":"461","country_name":"\u54c8\u8428\u514b\u65af\u5766"},{"city_id":"10597","city_name":"\u963f\u594e\u62c9","en_name":"L'Aquila","pingyin":"akuila","latitude":"42.349850","longitude":"13.399509","ctry_id":"189","country_name":"\u610f\u5927\u5229"},{"city_id":"7868","city_name":"\u963f\u62c9\u5df4\u9a6c\u5dde","en_name":"Alabama","pingyin":"alabamazhou","latitude":"32.318230","longitude":"-86.902298","ctry_id":"236","country_name":"\u7f8e\u56fd"},{"city_id":"12007","city_name":"\u963f\u62c9\u5c14","en_name":"Alaer","pingyin":"alaer","latitude":"40.547653","longitude":"81.280525","ctry_id":"11","country_name":"\u4e2d\u56fd"},{"city_id":"11225","city_name":"\u963f\u62c9\u8d21\u81ea\u6cbb\u533a","en_name":"Aragon","pingyin":"alagongzizhiqu","latitude":"41.597630","longitude":"-0.905662","ctry_id":"182","country_name":"\u897f\u73ed\u7259"},{"city_id":"10025","city_name":"\u963f\u62c9\u54c8\u5df4\u5fb7","en_name":"Allahabad","pingyin":"alahabade","latitude":"25.435801","longitude":"81.846313","ctry_id":"231","country_name":"\u5370\u5ea6"},{"city_id":"7355","city_name":"\u963f\u62c9\u80e1\u57c3\u62c9","en_name":"Alajuela","pingyin":"alahuaila","latitude":"10.016667","longitude":"-84.216667","ctry_id":"454","country_name":"\u54e5\u65af\u8fbe\u9ece\u52a0"},{"city_id":"6804","city_name":"\u963f\u62c9\u5361\u8339","en_name":"Aracaju","pingyin":"alakaru","latitude":"-10.916667","longitude":"-37.066666","ctry_id":"242","country_name":"\u5df4\u897f"},{"city_id":"13564","city_name":"\u963f\u62c9\u7c73\u8fbe","en_name":"Alameda,CA","pingyin":"alamida","latitude":"37.765205","longitude":"-122.241638","ctry_id":"236","country_name":"\u7f8e\u56fd"},{"city_id":"15697","city_name":"\u963f\u62c9\u83ab\u6208\u591a","en_name":"Alamogordo","pingyin":"alamogeduo","latitude":"32.899532","longitude":"-105.960266","ctry_id":"236","country_name":"\u7f8e\u56fd"},{"city_id":"10609","city_name":"\u963f\u62c9\u7a46\u7279\u5c71\u8c37","en_name":"Alamut Valley","pingyin":"alamuteshangu","latitude":"36.443325","longitude":"50.586475","ctry_id":"568","country_name":"\u4f0a\u6717"},{"city_id":"7409","city_name":"\u963f\u62c9\u6728\u56fe","en_name":"Almaty","pingyin":"alamutu","latitude":"43.250000","longitude":"76.949997","ctry_id":"461","country_name":"\u54c8\u8428\u514b\u65af\u5766"},{"city_id":"13566","city_name":"\u963f\u5170\u8fbe","en_name":"Arlanda","pingyin":"alanda","latitude":"59.649761","longitude":"17.923780","ctry_id":"202","country_name":"\u745e\u5178"},{"city_id":"8900","city_name":"\u963f\u62c9\u5c3c\u4e9a","en_name":"Alanya","pingyin":"alaniya","latitude":"36.552502","longitude":"32.002499","ctry_id":"195","country_name":"\u571f\u8033\u5176"},{"city_id":"11390","city_name":"\u963f\u62c9\u6070\u7279","en_name":"Ala\u00e7at\u0131","pingyin":"alaqiate","latitude":"38.282959","longitude":"26.374479","ctry_id":"195","country_name":"\u571f\u8033\u5176"},{"city_id":"11636","city_name":"\u963f\u62c9\u5584\u76df","en_name":"Alashanmeng","pingyin":"alashanmeng","latitude":"38.851891","longitude":"105.728966","ctry_id":"11","country_name":"\u4e2d\u56fd"},{"city_id":"12316","city_name":"\u963f\u62c9\u5584\u5de6\u65d7","en_name":"Alashanzuoqi","pingyin":"alashanzuoqi","latitude":"38.833412","longitude":"105.666290","ctry_id":"11","country_name":"\u4e2d\u56fd"},{"city_id":"7869","city_name":"\u963f\u62c9\u65af\u52a0\u5dde","en_name":"Alaska","pingyin":"alasijiazhou","latitude":"64.200844","longitude":"-149.493668","ctry_id":"236","country_name":"\u7f8e\u56fd"},{"city_id":"9225","city_name":"\u963f\u62c9\u97e6\u5c14\u8fea","en_name":"Alaverdi","pingyin":"alaweierdi","latitude":"41.091885","longitude":"44.658981","ctry_id":"566","country_name":"\u4e9a\u7f8e\u5c3c\u4e9a"},{"city_id":"6805","city_name":"\u963f\u96f7\u683c\u91cc\u6e2f","en_name":"Porto alegre","pingyin":"aleigeligang","latitude":"-30.027704","longitude":"-51.228737","ctry_id":"242","country_name":"\u5df4\u897f"},{"city_id":"8240","city_name":"\u963f\u96f7\u57fa\u5e15","en_name":"Arequipa","pingyin":"aleijipa","latitude":"-16.398890","longitude":"-71.535004","ctry_id":"509","country_name":"\u79d8\u9c81"},{"city_id":"10683","city_name":"\u963f\u96f7\u897f\u6c83","en_name":"Arecibo","pingyin":"aleixiwo","latitude":"18.472445","longitude":"-66.715729","ctry_id":"426","country_name":"\u6ce2\u591a\u9ece\u5404"},{"city_id":"9272","city_name":"\u963f\u96f7\u4f50","en_name":"Arezzo","pingyin":"aleizuo","latitude":"43.466969","longitude":"11.882308","ctry_id":"189","country_name":"\u610f\u5927\u5229"},{"city_id":"10807","city_name":"\u963f\u52d2\u9887","en_name":"Aleppo","pingyin":"alepo","latitude":"36.215549","longitude":"37.159279","ctry_id":"564","country_name":"\u53d9\u5229\u4e9a"},{"city_id":"8752","city_name":"\u963f\u52d2\u6d66","en_name":"Ullapool","pingyin":"alepu","latitude":"57.900002","longitude":"-5.166667","ctry_id":"13","country_name":"\u82f1\u56fd"},{"city_id":"11692","city_name":"\u963f\u52d2\u6cf0","en_name":"Aletai","pingyin":"aletai","latitude":"47.844925","longitude":"88.141251","ctry_id":"11","country_name":"\u4e2d\u56fd"},{"city_id":"11956","city_name":"\u963f\u91cc","en_name":"Ali","pingyin":"ali","latitude":"32.501110","longitude":"80.105804","ctry_id":"11","country_name":"\u4e2d\u56fd"},{"city_id":"9781","city_name":"\u963f\u91cc\u5361","en_name":"Arica","pingyin":"alika","latitude":"-18.483334","longitude":"-70.333336","ctry_id":"575","country_name":"\u667a\u5229"},{"city_id":"9068","city_name":"\u963f\u5229\u574e\u7279","en_name":"Alicante","pingyin":"alikante","latitude":"38.349998","longitude":"-0.483333","ctry_id":"182","country_name":"\u897f\u73ed\u7259"},{"city_id":"15674","city_name":"\u963f\u7075\u987f\uff08\u5fb7\u514b\u8428\u65af\uff09","en_name":"Arlington TX","pingyin":"alingdundundekesasisi","latitude":"32.735687","longitude":"-97.108063","ctry_id":"236","country_name":"\u7f8e\u56fd"},{"city_id":"7871","city_name":"\u963f\u7559\u7533\u7fa4\u5c9b","en_name":"Aleutian islands","pingyin":"aliushenqundao","latitude":"52.096943","longitude":"-173.500549","ctry_id":"236","country_name":"\u7f8e\u56fd"},{"city_id":"15431","city_name":"\u963f\u9c81\u7518\u6e7e","en_name":"Arugam Bay","pingyin":"aluganwan","latitude":"6.836199","longitude":"81.830635","ctry_id":"537","country_name":"\u65af\u91cc\u5170\u5361"},{"city_id":"10403","city_name":"\u963f\u6d1b\u5c9b","en_name":"Alor","pingyin":"aluodao","latitude":"-8.275403","longitude":"124.729874","ctry_id":"570","country_name":"\u5370\u5ea6\u5c3c\u897f\u4e9a"},{"city_id":"9102","city_name":"\u7bad\u9547","en_name":"Arrowtown","pingyin":"aluodun","latitude":"-44.941689","longitude":"168.835861","ctry_id":"241","country_name":"\u65b0\u897f\u5170"},{"city_id":"10441","city_name":"\u963f\u6d1b\u83f2","en_name":"Alofi","pingyin":"aluofei","latitude":"-19.055370","longitude":"-169.917877","ctry_id":"1064","country_name":"\u7ebd\u57c3"},{"city_id":"13572","city_name":"\u963f\u7f57\u7eb3","en_name":"Arona","pingyin":"aluona","latitude":"45.758614","longitude":"8.558182","ctry_id":"189","country_name":"\u610f\u5927\u5229"},{"city_id":"8870","city_name":"\u963f\u9c81\u6c99","en_name":"Arusha","pingyin":"alusha","latitude":"-3.366667","longitude":"36.683334","ctry_id":"546","country_name":"\u5766\u6851\u5c3c\u4e9a"},{"city_id":"9273","city_name":"\u963f\u9a6c\u5c14\u83f2","en_name":"Amalfi","pingyin":"amafei","latitude":"40.633331","longitude":"14.600000","ctry_id":"189","country_name":"\u610f\u5927\u5229"},{"city_id":"11247","city_name":"\u963f\u9a6c\u91cc\u6d1b","en_name":"Amarillo","pingyin":"amaliluo","latitude":"35.219257","longitude":"-101.833755","ctry_id":"236","country_name":"\u7f8e\u56fd"},{"city_id":"8901","city_name":"\u963f\u9a6c\u897f\u4e9a","en_name":"Amasya","pingyin":"amaxiya","latitude":"40.653332","longitude":"35.833057","ctry_id":"195","country_name":"\u571f\u8033\u5176"},{"city_id":"9015","city_name":"\u963f\u83ab\u5c14\u6208\u65af","en_name":"Amorgos","pingyin":"amoergesi","latitude":"36.833332","longitude":"25.900000","ctry_id":"206","country_name":"\u5e0c\u814a"},{"city_id":"7468","city_name":"\u5f17\u91cc\u897f\u4e9a\u7fa4\u5c9b","en_name":"Frisian Island","pingyin":"amolandao","latitude":"53.390266","longitude":"5.379883","ctry_id":"200","country_name":"\u8377\u5170"},{"city_id":"10135","city_name":"\u963f\u9ed8\u65af\u798f\u7279","en_name":"Amersfoort","pingyin":"amosifute","latitude":"52.156113","longitude":"5.387827","ctry_id":"200","country_name":"\u8377\u5170"},{"city_id":"10388","city_name":"\u963f\u7a46\u5c14\u6cb3\u7554\u5171\u9752\u57ce","en_name":"Komsomolsk-on-Amur","pingyin":"amuerhepangongqingcheng","latitude":"50.533894","longitude":"137.016418","ctry_id":"208","country_name":"\u4fc4\u7f57\u65af"},{"city_id":"9412","city_name":"\u963f\u59c6\u5229\u5219","en_name":"Amritsar","pingyin":"amulize","latitude":"31.633057","longitude":"74.865555","ctry_id":"231","country_name":"\u5370\u5ea6"},{"city_id":"42","city_name":"\u963f\u59c6\u65af\u7279\u4e39","en_name":"Amsterdam","pingyin":"amusitedan","latitude":"52.370216","longitude":"4.895168","ctry_id":"200","country_name":"\u8377\u5170"},{"city_id":"13579","city_name":"\u963f\u59c6\u65af\u7279\u5c14\u82ac","en_name":"Amstelveen","pingyin":"amusiteerfen","latitude":"52.311420","longitude":"4.870087","ctry_id":"200","country_name":"\u8377\u5170"},{"city_id":"9016","city_name":"\u963f\u7eb3\u83f2\u5c9b","en_name":"Anafi","pingyin":"anafeidao","latitude":"36.349998","longitude":"25.766666","ctry_id":"206","country_name":"\u5e0c\u814a"},{"city_id":"13580","city_name":"\u963f\u7eb3\u5361\u666e\u91cc","en_name":"Anacapri","pingyin":"anakapuli","latitude":"40.552837","longitude":"14.213814","ctry_id":"189","country_name":"\u610f\u5927\u5229"},{"city_id":"10132","city_name":"\u963f\u7eb3\u59c6","en_name":"Arnhem","pingyin":"anamu","latitude":"51.985561","longitude":"5.909860","ctry_id":"200","country_name":"\u8377\u5170"},{"city_id":"7769","city_name":"\u5b89\u5df4\u62c9\u6c83","en_name":"Ambalavao","pingyin":"anbalawo","latitude":"-21.834669","longitude":"46.936981","ctry_id":"496","country_name":"\u9a6c\u8fbe\u52a0\u65af\u52a0"},{"city_id":"7172","city_name":"\u5b89\u5df4\u6258","en_name":"Ambato","pingyin":"anbatuo","latitude":"-1.250000","longitude":"-78.616669","ctry_id":"443","country_name":"\u5384\u74dc\u591a\u5c14"},{"city_id":"10715","city_name":"\u5b89\u4f2f\u683c\u91cc\u65af\u5c9b","en_name":"Ambergris Caye","pingyin":"anbogelisidao","latitude":"18.001593","longitude":"-87.943283","ctry_id":"430","country_name":"\u4f2f\u5229\u5179"},{"city_id":"9548","city_name":"\u5b89\u535a\u585e\u5f97","en_name":"Ambleside","pingyin":"anbosaide","latitude":"54.416668","longitude":"-2.966667","ctry_id":"13","country_name":"\u82f1\u56fd"},{"city_id":"7712","city_name":"\u5b89\u535a\u585e\u5229\u56fd\u5bb6\u516c\u56ed","en_name":"Amboseli national park","pingyin":"anbosailiguojiagongyuan","latitude":"-2.626610","longitude":"37.254406","ctry_id":"483","country_name":"\u80af\u5c3c\u4e9a"},{"city_id":"8930","city_name":"\u5b89\u5e03\u91cc\u59c6\u5c9b","en_name":"Ambrym","pingyin":"anbulimudao","latitude":"-16.247784","longitude":"168.156448","ctry_id":"554","country_name":"\u74e6\u52aa\u963f\u56fe"},{"city_id":"7770","city_name":"\u5b89\u5e03\u897f\u7279\u62c9","en_name":"Ambositra","pingyin":"anbuxitela","latitude":"-20.516666","longitude":"47.250000","ctry_id":"496","country_name":"\u9a6c\u8fbe\u52a0\u65af\u52a0"},{"city_id":"12184","city_name":"\u5b89\u660c\u9547","en_name":"Anchang","pingyin":"anchang","latitude":"30.136520","longitude":"120.497597","ctry_id":"11","country_name":"\u4e2d\u56fd"},{"city_id":"15880","city_name":"\u5b89\u5927\u7565","en_name":"CA Ontario","pingyin":"andalue","latitude":"34.052769","longitude":"-117.632774","ctry_id":"236","country_name":"\u7f8e\u56fd"},{"city_id":"7514","city_name":"\u5b89\u5927\u7565\u7701","en_name":"Ontario","pingyin":"andaluesheng","latitude":"51.253777","longitude":"-85.323212","ctry_id":"238","country_name":"\u52a0\u62ff\u5927"},{"city_id":"9070","city_name":"\u5b89\u8fbe\u5362\u897f\u4e9a","en_name":"Andalucia","pingyin":"andaluxiya","latitude":"37.544270","longitude":"-4.727753","ctry_id":"182","country_name":"\u897f\u73ed\u7259"},{"city_id":"11379","city_name":"\u5b89\u8fbe\u66fc\u7fa4\u5c9b","en_name":"Andaman Islands","pingyin":"andamanqundao","latitude":"11.740087","longitude":"92.658638","ctry_id":"231","country_name":"\u5370\u5ea6"},{"city_id":"6527","city_name":"\u5b89\u9053\u5c14\u57ce","en_name":"Andorra la vella","pingyin":"andaoer","latitude":"42.500000","longitude":"1.516667","ctry_id":"408","country_name":"\u5b89\u9053\u5c14"},{"city_id":"7771","city_name":"\u5b89\u8fbe\u897f\u8d1d\u56fd\u5bb6\u516c\u56ed","en_name":"Andasibe-Mantadia National Park","pingyin":"andaxibeiguojiagongyuan","latitude":"-18.834980","longitude":"48.458736","ctry_id":"496","country_name":"\u9a6c\u8fbe\u52a0\u65af\u52a0"},{"city_id":"6764","city_name":"\u5df4\u54c8\u9a6c\u5b89\u5fb7\u7f57\u65af\u5c9b","en_name":"Andros","pingyin":"andeluosidao","latitude":"24.706381","longitude":"-78.019539","ctry_id":"413","country_name":"\u5df4\u54c8\u9a6c"},{"city_id":"9017","city_name":"\u5e0c\u814a\u5b89\u5fb7\u7f57\u65af\u5c9b","en_name":"Andros","pingyin":"andeluosidao","latitude":"37.838039","longitude":"24.939127","ctry_id":"206","country_name":"\u5e0c\u814a"},{"city_id":"10087","city_name":"\u5b89\u5fb7\u9a6c\u7279","en_name":"Andermatt","pingyin":"andemate","latitude":"46.633598","longitude":"8.594810","ctry_id":"524","country_name":"\u745e\u58eb"},{"city_id":"8447","city_name":"\u5b89\u5fb7\u5185\u65af","en_name":"Andenes","pingyin":"andeneisi","latitude":"69.320274","longitude":"16.142778","ctry_id":"521","country_name":"\u632a\u5a01"},{"city_id":"11373","city_name":"\u667a\u5229\u5b89\u7b2c\u65af\u9ad8\u539f","en_name":"Altiplano","pingyin":"andisigaoyuan","latitude":"-18.473055","longitude":"-68.001900","ctry_id":"575","country_name":"\u667a\u5229"},{"city_id":"7426","city_name":"\u5b89\u4e1c","en_name":"Andong","pingyin":"andong","latitude":"36.562859","longitude":"128.724106","ctry_id":"233","country_name":"\u97e9\u56fd"},{"city_id":"13645","city_name":"\u5b89\u4e1c\u5c3c","en_name":"Antony","pingyin":"andongni","latitude":"48.759254","longitude":"2.302553","ctry_id":"186","country_name":"\u6cd5\u56fd"},{"city_id":"9203","city_name":"\u5b89\u4e1c\u5c3c\u5965\u6e2f","en_name":"Port antonio","pingyin":"andongniaogang","latitude":"18.174198","longitude":"-76.446754","ctry_id":"565","country_name":"\u7259\u4e70\u52a0"},{"city_id":"12497","city_name":"\u5b89\u591a","en_name":"Anduo","pingyin":"anduo","latitude":"32.249928","longitude":"91.666733","ctry_id":"11","country_name":"\u4e2d\u56fd"},{"city_id":"9721","city_name":"\u963f\u5185\u52a0\u8fbe\u5c9b","en_name":"Anegada","pingyin":"aneijiadadao","latitude":"18.727243","longitude":"-64.343086","ctry_id":"571","country_name":"\u82f1\u5c5e\u7ef4\u5c14\u4eac\u7fa4\u5c9b"},{"city_id":"7194","city_name":"\u963f\u8bb7\u897f","en_name":"Annecy","pingyin":"anexi","latitude":"45.900002","longitude":"6.116667","ctry_id":"186","country_name":"\u6cd5\u56fd"},{"city_id":"12891","city_name":"\u5b89\u798f","en_name":"Anfu","pingyin":"anfu","latitude":"27.392874","longitude":"114.619896","ctry_id":"11","country_name":"\u4e2d\u56fd"},{"city_id":"7198","city_name":"\u6602\u5e03\u74e6\u5179","en_name":"Amboise","pingyin":"angbuwasi","latitude":"47.416668","longitude":"0.983333","ctry_id":"186","country_name":"\u6cd5\u56fd"},{"city_id":"6806","city_name":"\u5b89\u683c\u62c9-\u675c\u65af\u96f7\u65af","en_name":"Angra dos reis","pingyin":"angeladusileisi","latitude":"-23.000000","longitude":"-44.299999","ctry_id":"242","country_name":"\u5df4\u897f"},{"city_id":"13127","city_name":"\u5b89\u683c\u5229\u5947\u6bd4\u6851\u5c9b","en_name":"Ngerekebesang Island ","pingyin":"angeliqibisangdao","latitude":"7.352715","longitude":"134.448853","ctry_id":"522","country_name":"\u5e15\u52b3"},{"city_id":"7199","city_name":"\u6602\u70ed","en_name":"Angers","pingyin":"angre","latitude":"47.466667","longitude":"-0.550000","ctry_id":"186","country_name":"\u6cd5\u56fd"},{"city_id":"12652","city_name":"\u6602\u4ec1","en_name":"Angren","pingyin":"angren","latitude":"29.294802","longitude":"87.236053","ctry_id":"11","country_name":"\u4e2d\u56fd"},{"city_id":"12363","city_name":"\u5b89\u5316","en_name":"Anhua","pingyin":"anhua","latitude":"28.374107","longitude":"111.212845","ctry_id":"11","country_name":"\u4e2d\u56fd"},{"city_id":"9541","city_name":"\u963f\u5c3c\u514b","en_name":"Alnwick","pingyin":"anike","latitude":"55.400002","longitude":"-1.700000","ctry_id":"13","country_name":"\u82f1\u56fd"},{"city_id":"11918","city_name":"\u5b89\u5409","en_name":"Anji","pingyin":"anji","latitude":"30.638676","longitude":"119.680351","ctry_id":"11","country_name":"\u4e2d\u56fd"},{"city_id":"13648","city_name":"\u5b89\u5409\u5229\u65af","en_name":"Angeles","pingyin":"anjilisi","latitude":"15.144985","longitude":"120.588699","ctry_id":"446","country_name":"\u83f2\u5f8b\u5bbe"},{"city_id":"9008","city_name":"\u5b89\u96c6\u5ef6","en_name":"Andijon","pingyin":"anjiyan","latitude":"40.654167","longitude":"72.357498","ctry_id":"562","country_name":"\u4e4c\u5179\u522b\u514b\u65af\u5766"},{"city_id":"8905","city_name":"\u5b89\u5361\u62c9","en_name":"Ankara","pingyin":"ankala","latitude":"39.927223","longitude":"32.864445","ctry_id":"195","country_name":"\u571f\u8033\u5176"},{"city_id":"11907","city_name":"\u5b89\u5eb7","en_name":"Ankang","pingyin":"ankang","latitude":"32.684715","longitude":"109.029022","ctry_id":"11","country_name":"\u4e2d\u56fd"},{"city_id":"7878","city_name":"\u5b89\u514b\u96f7\u5947","en_name":"Anchorage","pingyin":"ankeleiqi","latitude":"61.218056","longitude":"-149.900284","ctry_id":"236","country_name":"\u7f8e\u56fd"},{"city_id":"9279","city_name":"\u5b89\u79d1\u7eb3","en_name":"Ancona","pingyin":"ankena","latitude":"43.633331","longitude":"13.500000","ctry_id":"189","country_name":"\u610f\u5927\u5229"},{"city_id":"9782","city_name":"\u5b89\u5e93\u5fb7","en_name":"Ancud","pingyin":"ankude","latitude":"-41.869720","longitude":"-73.820274","ctry_id":"575","country_name":"\u667a\u5229"},{"city_id":"15808","city_name":"\u5b89\u6765\u5e02","en_name":"Yasugi","pingyin":"anlaishi","latitude":"35.431442","longitude":"133.250916","ctry_id":"14","country_name":"\u65e5\u672c"},{"city_id":"12605","city_name":"\u5b89\u9f99","en_name":"Anlong","pingyin":"anlong","latitude":"25.099014","longitude":"105.442703","ctry_id":"11","country_name":"\u4e2d\u56fd"},{"city_id":"7650","city_name":"\u5b89\u9686\u6c76","en_name":"Anlong veng","pingyin":"anlongwen","latitude":"14.233333","longitude":"104.083336","ctry_id":"219","country_name":"\u67ec\u57d4\u5be8"},{"city_id":"12563","city_name":"\u5b89\u9646","en_name":"Anlu","pingyin":"anlu","latitude":"31.255594","longitude":"113.689026","ctry_id":"11","country_name":"\u4e2d\u56fd"},{"city_id":"9725","city_name":"\u5b89\u66fc","en_name":"Amman","pingyin":"anman","latitude":"31.950001","longitude":"35.933334","ctry_id":"572","country_name":"\u7ea6\u65e6"},{"city_id":"6327","city_name":"\u5b89\u7eb3\u5df4","en_name":"Annaba","pingyin":"annaba","latitude":"36.900002","longitude":"7.766667","ctry_id":"400","country_name":"\u963f\u5c14\u53ca\u5229\u4e9a"},{"city_id":"13653","city_name":"\u5b89\u5a1c\u5821","en_name":"Ann Arbor","pingyin":"annabao","latitude":"42.280827","longitude":"-83.743034","ctry_id":"236","country_name":"\u7f8e\u56fd"},{"city_id":"13343","city_name":"\u5b89\u5a1c\u4fdd\u7f57\u5a1c","en_name":"Anna Paulowna","pingyin":"annabaoluona","latitude":"52.861614","longitude":"4.823809","ctry_id":"200","country_name":"\u8377\u5170"},{"city_id":"7879","city_name":"\u5b89\u7eb3\u6ce2\u5229\u65af","en_name":"Annapolis","pingyin":"annabolisi","latitude":"38.978443","longitude":"-76.492180","ctry_id":"236","country_name":"\u7f8e\u56fd"},{"city_id":"13651","city_name":"\u5b89\u7eb3\u6d77\u59c6","en_name":"Anaheim","pingyin":"annahaimu","latitude":"33.835293","longitude":"-117.914505","ctry_id":"236","country_name":"\u7f8e\u56fd"},{"city_id":"13652","city_name":"\u5b89\u7eb3\u9a6c\u65af","en_name":"Annemasse","pingyin":"annamasi","latitude":"46.193253","longitude":"6.234158","ctry_id":"186","country_name":"\u6cd5\u56fd"},{"city_id":"15392","city_name":"\u5b89\u5a1c\u666e\u5c14\u7eb3\u4fdd\u62a4\u533a","en_name":"Annapurna Conservation Area","pingyin":"annapuernabaohuqu","latitude":"28.596111","longitude":"83.820274","ctry_id":"220","country_name":"\u5c3c\u6cca\u5c14"},{"city_id":"12801","city_name":"\u5b89\u5b81\u5e02","en_name":"Anning","pingyin":"anning","latitude":"24.919493","longitude":"102.478493","ctry_id":"11","country_name":"\u4e2d\u56fd"},{"city_id":"7772","city_name":"\u5b89\u9f50\u62c9\u8d1d","en_name":"Antsirabe","pingyin":"anqilabei","latitude":"-19.866667","longitude":"47.033333","ctry_id":"496","country_name":"\u9a6c\u8fbe\u52a0\u65af\u52a0"},{"city_id":"12046","city_name":"\u5b89\u5e86","en_name":"Anqing","pingyin":"anqing","latitude":"30.543493","longitude":"117.063751","ctry_id":"11","country_name":"\u4e2d\u56fd"},{"city_id":"12087","city_name":"\u5b89\u4ec1","en_name":"Anren","pingyin":"anren","latitude":"26.709057","longitude":"113.269440","ctry_id":"11","country_name":"\u4e2d\u56fd"},{"city_id":"12844","city_name":"\u5b89\u585e","en_name":"Ansai","pingyin":"ansai","latitude":"36.863853","longitude":"109.328842","ctry_id":"11","country_name":"\u4e2d\u56fd"},{"city_id":"13344","city_name":"Anse Boileau","en_name":"Anse Boileau","pingyin":"Anse Boileau","latitude":"-4.704727","longitude":"55.485935","ctry_id":"531","country_name":"\u585e\u820c\u5c14"},{"city_id":"11653","city_name":"\u978d\u5c71","en_name":"Anshan","pingyin":"anshan","latitude":"41.108646","longitude":"122.994331","ctry_id":"11","country_name":"\u4e2d\u56fd"},{"city_id":"11769","city_name":"\u5b89\u987a","en_name":"Anshun","pingyin":"anshun","latitude":"26.253073","longitude":"105.947594","ctry_id":"11","country_name":"\u4e2d\u56fd"},{"city_id":"15625","city_name":"\u5b89\u987a\u5e02\uff08\u9739\u96f3\u5dde\uff09","en_name":"Teluk Intan","pingyin":"anshunshishipilizhouzhou","latitude":"4.022424","longitude":"101.020622","ctry_id":"213","country_name":"\u9a6c\u6765\u897f\u4e9a"},{"city_id":"8756","city_name":"\u5b89\u65af\u7279\u62c9\u745f","en_name":"Anstruther","pingyin":"ansitelase","latitude":"56.216667","longitude":"-2.700000","ctry_id":"13","country_name":"\u82f1\u56fd"},{"city_id":"7773","city_name":"\u5b89\u5854\u62c9\u54c8","en_name":"Antalaha","pingyin":"antalaha","latitude":"-14.883333","longitude":"50.283333","ctry_id":"496","country_name":"\u9a6c\u8fbe\u52a0\u65af\u52a0"},{"city_id":"8906","city_name":"\u5b89\u5854\u5229\u4e9a","en_name":"Antalya","pingyin":"antaliya","latitude":"36.912498","longitude":"30.689722","ctry_id":"195","country_name":"\u571f\u8033\u5176"},{"city_id":"7787","city_name":"\u5b89\u5854\u90a3\u90a3\u5229\u4f5b","en_name":"Antananarivo","pingyin":"antananalidaotuomu","latitude":"-18.914871","longitude":"47.531612","ctry_id":"496","country_name":"\u9a6c\u8fbe\u52a0\u65af\u52a0"},{"city_id":"6893","city_name":"\u5b89\u7279\u536b\u666e","en_name":"Antwerp","pingyin":"anteweipu","latitude":"51.216667","longitude":"4.416667","ctry_id":"424","country_name":"\u6bd4\u5229\u65f6"},{"city_id":"10083","city_name":"\u5b89\u63d0\u8d1d","en_name":"Antibes","pingyin":"antibei","latitude":"43.580044","longitude":"7.125188","ctry_id":"186","country_name":"\u6cd5\u56fd"},{"city_id":"6529","city_name":"\u5b89\u63d0\u74dc\u5c9b","en_name":"Antigua","pingyin":"antiguadao","latitude":"17.074656","longitude":"-61.817520","ctry_id":"410","country_name":"\u5b89\u63d0\u74dc\u548c\u5df4\u5e03\u8fbe"},{"city_id":"8937","city_name":"\u5b89\u63d0\u74dc","en_name":"Antigua","pingyin":"antiguadao","latitude":"14.561111","longitude":"-90.734444","ctry_id":"555","country_name":"\u5371\u5730\u9a6c\u62c9"},{"city_id":"12320","city_name":"\u5b89\u56fe","en_name":"Antu","pingyin":"antu","latitude":"43.115898","longitude":"128.909241","ctry_id":"11","country_name":"\u4e2d\u56fd"},{"city_id":"9783","city_name":"\u5b89\u6258\u6cd5\u52a0\u65af\u5854","en_name":"Antofagasta","pingyin":"antuofajiasita","latitude":"-23.650000","longitude":"-70.400002","ctry_id":"575","country_name":"\u667a\u5229"},{"city_id":"8699","city_name":"\u963f\u52aa\u62c9\u5fb7\u666e\u52d2","en_name":"Anuradhapura","pingyin":"anuladepule","latitude":"8.350000","longitude":"80.383331","ctry_id":"537","country_name":"\u65af\u91cc\u5170\u5361"},{"city_id":"9502","city_name":"\u5b89\u6c76","en_name":"Ambon","pingyin":"anwen","latitude":"-3.656070","longitude":"128.166412","ctry_id":"570","country_name":"\u5370\u5ea6\u5c3c\u897f\u4e9a"},{"city_id":"12776","city_name":"\u5b89\u6eaa","en_name":"Anxi","pingyin":"anxi","latitude":"25.055956","longitude":"118.186287","ctry_id":"11","country_name":"\u4e2d\u56fd"},{"city_id":"11707","city_name":"\u5b89\u9633","en_name":"Anyang","pingyin":"anyang","latitude":"37.394253","longitude":"126.956818","ctry_id":"11","country_name":"\u4e2d\u56fd"},{"city_id":"12384","city_name":"\u5b89\u4e49","en_name":"Anyi","pingyin":"anyi","latitude":"28.844507","longitude":"115.549248","ctry_id":"11","country_name":"\u4e2d\u56fd"},{"city_id":"12387","city_name":"\u5b89\u6e90","en_name":"Anyuan","pingyin":"anyuan","latitude":"27.615202","longitude":"113.870728","ctry_id":"11","country_name":"\u4e2d\u56fd"},{"city_id":"12791","city_name":"\u5b89\u8fdc","en_name":"Anyuan","pingyin":"anyuan","latitude":"25.136927","longitude":"115.393921","ctry_id":"11","country_name":"\u4e2d\u56fd"},{"city_id":"12826","city_name":"\u5b89\u5cb3","en_name":"Anyue","pingyin":"anyue","latitude":"30.097231","longitude":"105.335693","ctry_id":"11","country_name":"\u4e2d\u56fd"},{"city_id":"13658","city_name":"\u5965\u5df4\u62c9\u9a6c\u9ad8","en_name":"Oberammergau","pingyin":"aobalamagao","latitude":"47.595661","longitude":"11.072352","ctry_id":"15","country_name":"\u5fb7\u56fd"},{"city_id":"8757","city_name":"\u5965\u672c","en_name":"Oban","pingyin":"aoben","latitude":"56.416668","longitude":"-5.466667","ctry_id":"13","country_name":"\u82f1\u56fd"},{"city_id":"11519","city_name":"\u5965\u6bd4\u90fd\u65af","en_name":"\u00d3bidos","pingyin":"aobidousi","latitude":"39.360420","longitude":"-9.158201","ctry_id":"523","country_name":"\u8461\u8404\u7259"},{"city_id":"13660","city_name":"\u5965\u4f2f\u8c6a\u68ee","en_name":"Oberhausen","pingyin":"aobohaosen","latitude":"51.496334","longitude":"6.863777","ctry_id":"15","country_name":"\u5fb7\u56fd"},{"city_id":"6917","city_name":"\u5965\u6ce2\u83b1","en_name":"Opole","pingyin":"aobolai","latitude":"50.675106","longitude":"17.921297","ctry_id":"427","country_name":"\u6ce2\u5170"},{"city_id":"8394","city_name":"\u5965\u8328\u80e1\u6069","en_name":"Oudtshoorn","pingyin":"aocihuen","latitude":"-33.583332","longitude":"22.200001","ctry_id":"517","country_name":"\u5357\u975e"},{"city_id":"8448","city_name":"\u5965\u8fbe","en_name":"Odda","pingyin":"aoda","latitude":"60.066666","longitude":"6.550000","ctry_id":"521","country_name":"\u632a\u5a01"},{"city_id":"15825","city_name":"\u5965\u5fb7\u6cb3\u7554\u7684\u6cd5\u5170\u514b\u798f","en_name":"Frankfurt(Oder)","pingyin":"aodehepandefalankefu","latitude":"52.347225","longitude":"14.550567","ctry_id":"15","country_name":"\u5fb7\u56fd"},{"city_id":"8977","city_name":"\u6556\u5fb7\u8428","en_name":"Odesa","pingyin":"aodesa","latitude":"46.466667","longitude":"30.733334","ctry_id":"560","country_name":"\u4e4c\u514b\u5170"},{"city_id":"15546","city_name":"\u5965\u591a\u6469","en_name":"Okutama","pingyin":"aoduomo","latitude":"35.809544","longitude":"139.096191","ctry_id":"14","country_name":"\u65e5\u672c"},{"city_id":"6597","city_name":"\u5965\u5c14\u5df4\u5c3c","en_name":"Albany","pingyin":"aoerbani","latitude":"-35.023823","longitude":"117.884727","ctry_id":"240","country_name":"\u6fb3\u5927\u5229\u4e9a"},{"city_id":"10173","city_name":"\u5965\u5c14\u5821","en_name":"Aalborg","pingyin":"aoerbao","latitude":"57.028812","longitude":"9.917771","ctry_id":"205","country_name":"\u4e39\u9ea6"},{"city_id":"9280","city_name":"\u5965\u5c14\u6bd4\u4e9a","en_name":"Olbia","pingyin":"aoerbiya","latitude":"40.916668","longitude":"9.516667","ctry_id":"189","country_name":"\u610f\u5927\u5229"},{"city_id":"13666","city_name":"\u5965\u5c14\u4f2f\u91cc","en_name":"Albury","pingyin":"aoerboli","latitude":"-36.080780","longitude":"146.916473","ctry_id":"240","country_name":"\u6fb3\u5927\u5229\u4e9a"},{"city_id":"10474","city_name":"\u5965\u5c14\u5c9b","en_name":"Pulau Aur","pingyin":"aoerdao","latitude":"2.444152","longitude":"104.524750","ctry_id":"213","country_name":"\u9a6c\u6765\u897f\u4e9a"},{"city_id":"15835","city_name":"\u5965\u5c14\u767b\u5821","en_name":"Oldenburg","pingyin":"aoerdengbao","latitude":"53.143452","longitude":"8.214552","ctry_id":"15","country_name":"\u5fb7\u56fd"},{"city_id":"11280","city_name":"\u5965\u5c14\u6d2a\u5c9b","en_name":"Olkhon","pingyin":"aoerhongdao","latitude":"53.156666","longitude":"107.383614","ctry_id":"208","country_name":"\u4fc4\u7f57\u65af"},{"city_id":"10550","city_name":"\u5965\u5c14\u826f","en_name":"Orleans","pingyin":"aoerliang","latitude":"47.902966","longitude":"1.909251","ctry_id":"186","country_name":"\u6cd5\u56fd"},{"city_id":"9415","city_name":"\u5965\u5c14\u6070","en_name":"Orchha","pingyin":"aoerqia","latitude":"25.350000","longitude":"78.650002","ctry_id":"231","country_name":"\u5370\u5ea6"},{"city_id":"9281","city_name":"\u5965\u5c14\u7ef4\u8036\u6258","en_name":"Orvieto","pingyin":"aoerweiyetuo","latitude":"42.716667","longitude":"12.116667","ctry_id":"189","country_name":"\u610f\u5927\u5229"},{"city_id":"15328","city_name":"\u5965\u98de\u9a52\u6e29\u6cc9\u4e61","en_name":"Okuhida Onsen Town","pingyin":"aofeituowenquanxiang","latitude":"36.244877","longitude":"137.519760","ctry_id":"14","country_name":"\u65e5\u672c"},{"city_id":"13669","city_name":"\u5965\u82ac\u5df4\u8d6b","en_name":"Offenbach","pingyin":"aofenbahe","latitude":"50.095634","longitude":"8.776084","ctry_id":"15","country_name":"\u5fb7\u56fd"},{"city_id":"15813","city_name":"\u5965\u82ac\u5821","en_name":"Offenburg","pingyin":"aofenbao","latitude":"48.473450","longitude":"7.949802","ctry_id":"15","country_name":"\u5fb7\u56fd"},{"city_id":"13200","city_name":"\u5965\u5f17\u6d85\u5927\u533a","en_name":"Region Auvergne","pingyin":"aofuniedaqu","latitude":"45.703270","longitude":"3.344854","ctry_id":"186","country_name":"\u6cd5\u56fd"},{"city_id":"7023","city_name":"\u5965\u683c\u65af\u5821","en_name":"Augsburg","pingyin":"aogesibao","latitude":"48.366669","longitude":"10.883333","ctry_id":"15","country_name":"\u5fb7\u56fd"},{"city_id":"13670","city_name":"\u5965\u53e4\u65af\u90fd\u5821","en_name":"Fort Augustus","pingyin":"aogusidoubao","latitude":"57.144234","longitude":"-4.679817","ctry_id":"13","country_name":"\u82f1\u56fd"},{"city_id":"6598","city_name":"\u5965\u53e4\u65af\u5854\u6e2f","en_name":"Port Augusta","pingyin":"aogusitagang","latitude":"-32.500000","longitude":"137.766663","ctry_id":"240","country_name":"\u6fb3\u5927\u5229\u4e9a"},{"city_id":"7845","city_name":"\u5965\u8d6b\u91cc\u5fb7","en_name":"Ohrid","pingyin":"aohelide","latitude":"41.117222","longitude":"20.801945","ctry_id":"501","country_name":"\u9a6c\u5176\u987f"},{"city_id":"9837","city_name":"\u5965\u80e1\u65af","en_name":"Aarhus","pingyin":"aohusi","latitude":"56.162937","longitude":"10.203921","ctry_id":"205","country_name":"\u4e39\u9ea6"},{"city_id":"10934","city_name":"\u5965\u5361\u4e07\u6208\u4e09\u89d2\u6d32","en_name":"Okavango Delta","pingyin":"aokawangesanjiaozhou","latitude":"-19.304543","longitude":"22.643703","ctry_id":"431","country_name":"\u535a\u8328\u74e6\u7eb3"},{"city_id":"9549","city_name":"\u5965\u514b\u6c49\u666e\u987f","en_name":"Okehampton","pingyin":"aokehanpudun","latitude":"50.733334","longitude":"-4.000000","ctry_id":"13","country_name":"\u82f1\u56fd"},{"city_id":"13673","city_name":"\u5965\u514b\u8d6b\u65af\u7279","en_name":"Oakhurst","pingyin":"aokehesite","latitude":"37.327999","longitude":"-119.649315","ctry_id":"236","country_name":"\u7f8e\u56fd"},{"city_id":"66","city_name":"\u5965\u514b\u5170","en_name":"Auckland","pingyin":"aokelan","latitude":"-36.848461","longitude":"174.763336","ctry_id":"241","country_name":"\u65b0\u897f\u5170"},{"city_id":"13674","city_name":"\u52a0\u5229\u798f\u5c3c\u4e9a\u5dde\u5965\u514b\u5170","en_name":"Oakland","pingyin":"aokelan","latitude":"37.804363","longitude":"-122.271111","ctry_id":"236","country_name":"\u7f8e\u56fd"},{"city_id":"11367","city_name":"\u5965\u514b\u5170\u7fa4\u5c9b","en_name":"Auckland Islands","pingyin":"aokelanqundao","latitude":"-50.621754","longitude":"166.119568","ctry_id":"241","country_name":"\u65b0\u897f\u5170"},{"city_id":"7758","city_name":"\u5965\u62c9\u8fea\u4e9a","en_name":"Oradea","pingyin":"aoladiya","latitude":"47.066666","longitude":"21.933332","ctry_id":"495","country_name":"\u7f57\u9a6c\u5c3c\u4e9a"},{"city_id":"6328","city_name":"\u5965\u5170","en_name":"Oran","pingyin":"aolan","latitude":"35.691113","longitude":"-0.641667","ctry_id":"400","country_name":"\u963f\u5c14\u53ca\u5229\u4e9a"},{"city_id":"7882","city_name":"\u5965\u5170\u591a","en_name":"Orlando","pingyin":"aolanduo","latitude":"28.538336","longitude":"-81.379234","ctry_id":"236","country_name":"\u7f8e\u56fd"},{"city_id":"13679","city_name":"\u5965\u6717\u65e5","en_name":"Orange,Provence","pingyin":"aolangri","latitude":"44.126442","longitude":"4.803692","ctry_id":"186","country_name":"\u6cd5\u56fd"},{"city_id":"10600","city_name":"\u963f\u9c81\u5df4\u5965\u814a\u6d85\u65af\u5854\u5fb7","en_name":"Oranjestad","pingyin":"aolaniesitade","latitude":"12.524580","longitude":"-70.026459","ctry_id":"432","country_name":"\u963f\u9c81\u5df4"},{"city_id":"10227","city_name":"\u5965\u5170\u52a0\u5df4\u5fb7","en_name":"Aurangabad","pingyin":"aolanjiabade","latitude":"19.876165","longitude":"75.343315","ctry_id":"231","country_name":"\u5370\u5ea6"},{"city_id":"15225","city_name":"\u5965\u5170\u7fa4\u5c9b","en_name":"\u00c5land","pingyin":"aolanqundao","latitude":"60.178524","longitude":"19.915609","ctry_id":"448","country_name":"\u82ac\u5170"},{"city_id":"6984","city_name":"\u5965\u5170\u6cbb\u6c83\u514b","en_name":"Orange Walk","pingyin":"aolanzhiwoke","latitude":"18.083349","longitude":"-88.556671","ctry_id":"430","country_name":"\u4f2f\u5229\u5179"},{"city_id":"8440","city_name":"\u5965\u52d2\u677e","en_name":"Alesund","pingyin":"aolesong","latitude":"62.466667","longitude":"6.150000","ctry_id":"521","country_name":"\u632a\u5a01"},{"city_id":"13681","city_name":"\u5965\u5229","en_name":"Orly","pingyin":"aoli","latitude":"48.745193","longitude":"2.401373","ctry_id":"186","country_name":"\u6cd5\u56fd"},{"city_id":"10378","city_name":"\u5965\u5ed6\u5c14","en_name":"Oryol","pingyin":"aoliaoer","latitude":"52.970440","longitude":"36.065018","ctry_id":"208","country_name":"\u4fc4\u7f57\u65af"},{"city_id":"6807","city_name":"\u5965\u6797\u8fbe","en_name":"Olinda","pingyin":"aolinda","latitude":"-8.009370","longitude":"-34.855278","ctry_id":"242","country_name":"\u5df4\u897f"},{"city_id":"7884","city_name":"\u5965\u6797\u5339\u514b\u56fd\u5bb6\u516c\u56ed","en_name":"Olympic national park","pingyin":"aolinpikeguojiagongyuan","latitude":"47.807358","longitude":"-123.577957","ctry_id":"236","country_name":"\u7f8e\u56fd"},{"city_id":"9019","city_name":"\u5965\u6797\u5339\u4e9a","en_name":"Olympia","pingyin":"aolinpiya","latitude":"37.644176","longitude":"21.620333","ctry_id":"206","country_name":"\u5e0c\u814a"},{"city_id":"9282","city_name":"\u5965\u91cc\u65af\u5854\u8bfa","en_name":"Oristano","pingyin":"aolisitanuo","latitude":"39.903057","longitude":"8.591944","ctry_id":"189","country_name":"\u610f\u5927\u5229"},{"city_id":"7296","city_name":"\u5965\u5362","en_name":"Oulu","pingyin":"aolu","latitude":"65.016670","longitude":"25.466667","ctry_id":"448","country_name":"\u82ac\u5170"},{"city_id":"6969","city_name":"\u5965\u9c81\u7f57","en_name":"Oruro","pingyin":"aoluluo","latitude":"-17.975281","longitude":"-67.110764","ctry_id":"429","country_name":"\u73bb\u5229\u7ef4\u4e9a"},{"city_id":"7669","city_name":"\u5965\u6d1b\u83ab\u4e4c\u8328","en_name":"Olomouc","pingyin":"aoluomowuci","latitude":"49.583332","longitude":"17.250000","ctry_id":"193","country_name":"\u6377\u514b"},{"city_id":"13683","city_name":"\u5965\u9a6c\u54c8","en_name":"Omaha","pingyin":"aomaha","latitude":"41.252361","longitude":"-95.997986","ctry_id":"236","country_name":"\u7f8e\u56fd"},{"city_id":"9108","city_name":"\u5965\u9a6c\u9c81","en_name":"Oamaru","pingyin":"aomalu","latitude":"-45.097511","longitude":"170.970413","ctry_id":"241","country_name":"\u65b0\u897f\u5170"},{"city_id":"51","city_name":"\u6fb3\u95e8","en_name":"Macau","pingyin":"aomen","latitude":"22.198746","longitude":"113.543877","ctry_id":"11","country_name":"\u4e2d\u56fd"},{"city_id":"10876","city_name":"\u5965\u83ab\u5c71\u8c37","en_name":"Omo Valley","pingyin":"aomoshangu","latitude":"4.758945","longitude":"36.590176","ctry_id":"405","country_name":"\u57c3\u585e\u4fc4\u6bd4\u4e9a"},{"city_id":"7701","city_name":"\u5965\u5e15\u8482\u4e9a","en_name":"Opatija","pingyin":"aopadiya","latitude":"45.335411","longitude":"14.306348","ctry_id":"482","country_name":"\u514b\u7f57\u5730\u4e9a"},{"city_id":"13278","city_name":"\u5965\u666e\u5170\u90e1","en_name":"Oppland","pingyin":"aopulanjun","latitude":"61.542274","longitude":"9.716631","ctry_id":"521","country_name":"\u632a\u5a01"},{"city_id":"10819","city_name":"\u5965\u666e\u6c83","en_name":"Opuwo","pingyin":"aopuwo","latitude":"-18.055555","longitude":"13.840556","ctry_id":"516","country_name":"\u7eb3\u7c73\u6bd4\u4e9a"},{"city_id":"9205","city_name":"\u5965\u4e54\u91cc\u5965\u65af","en_name":"Ocho rios","pingyin":"aoqiaoliaosi","latitude":"18.404942","longitude":"-77.105339","ctry_id":"565","country_name":"\u7259\u4e70\u52a0"},{"city_id":"13687","city_name":"\u5965\u8d5b","en_name":"Orsay","pingyin":"aosai","latitude":"48.697163","longitude":"2.189617","ctry_id":"186","country_name":"\u6cd5\u56fd"},{"city_id":"7503","city_name":"\u5965\u4ec0","en_name":"Osh","pingyin":"aoshen","latitude":"40.529446","longitude":"72.790001","ctry_id":"468","country_name":"\u5409\u5c14\u5409\u65af\u65af\u5766"},{"city_id":"8450","city_name":"\u5965\u65af\u9646","en_name":"Oslo","pingyin":"aosilu","latitude":"59.913868","longitude":"10.752245","ctry_id":"521","country_name":"\u632a\u5a01"},{"city_id":"11142","city_name":"\u5965\u65af\u7eb3\u5e03\u5415\u514b","en_name":"\u00d6snabruck","pingyin":"aosinabulvke","latitude":"52.279911","longitude":"8.047179","ctry_id":"15","country_name":"\u5fb7\u56fd"},{"city_id":"9283","city_name":"\u5965\u65af\u5854","en_name":"Aosta","pingyin":"aosita","latitude":"45.733334","longitude":"7.333333","ctry_id":"189","country_name":"\u610f\u5927\u5229"},{"city_id":"13691","city_name":"\u5965\u65af\u5766\u5fb7","en_name":"Ostend","pingyin":"aositande","latitude":"51.215431","longitude":"2.928656","ctry_id":"424","country_name":"\u6bd4\u5229\u65f6"},{"city_id":"7886","city_name":"\u5965\u65af\u6c40","en_name":"Austin","pingyin":"aositing","latitude":"30.267153","longitude":"-97.743057","ctry_id":"236","country_name":"\u7f8e\u56fd"},{"city_id":"9784","city_name":"\u5965\u7d22\u5c14\u8bfa","en_name":"Osorno","pingyin":"aosuoernuo","latitude":"-40.566666","longitude":"-73.150002","ctry_id":"575","country_name":"\u667a\u5229"},{"city_id":"7517","city_name":"\u5965\u7d22\u5c24\u65af","en_name":"Osoyoos","pingyin":"aosuoyousi","latitude":"49.033333","longitude":"-119.466667","ctry_id":"238","country_name":"\u52a0\u62ff\u5927"},{"city_id":"7173","city_name":"\u5965\u5854\u74e6\u6d1b","en_name":"Otavalo","pingyin":"aotawaluo","latitude":"0.233333","longitude":"-78.266670","ctry_id":"443","country_name":"\u5384\u74dc\u591a\u5c14"},{"city_id":"10647","city_name":"\u5965\u74e6\u5361","en_name":"Owaka","pingyin":"aowaka","latitude":"-46.451302","longitude":"169.658249","ctry_id":"241","country_name":"\u65b0\u897f\u5170"},{"city_id":"10278","city_name":"\u5965\u7ef4\u8036\u591a","en_name":"Oviedo","pingyin":"aoweiyeduo","latitude":"43.361916","longitude":"-5.849389","ctry_id":"182","country_name":"\u897f\u73ed\u7259"},{"city_id":"11290","city_name":"\u5965\u4f0a\u7c73\u4e9a\u5eb7","en_name":"Oymyakon","pingyin":"aoyimiyakang","latitude":"63.263058","longitude":"143.208328","ctry_id":"208","country_name":"\u4fc4\u7f57\u65af"},{"city_id":"10598","city_name":"\u5965\u4f0a\u65af\u5ef7\u65af","en_name":"Oistins","pingyin":"aoyisitingsi","latitude":"13.066667","longitude":"-59.533333","ctry_id":"411","country_name":"\u5df4\u5df4\u591a\u65af"},{"city_id":"15201","city_name":"\u963f\u5e15\u5947\u7ae0\u514b\u7533","en_name":"Apache Junction","pingyin":"Apache Junction","latitude":"33.410000","longitude":"-111.550003","ctry_id":"236","country_name":"\u7f8e\u56fd"},{"city_id":"10142","city_name":"\u963f\u57f9\u5c14\u987f","en_name":"Apeldoorn","pingyin":"apeierdun","latitude":"52.211159","longitude":"5.969923","ctry_id":"200","country_name":"\u8377\u5170"},{"city_id":"13583","city_name":"\u963f\u5f6d\u7b56\u5c14","en_name":"Appenzell","pingyin":"apengceer","latitude":"47.330803","longitude":"9.408706","ctry_id":"524","country_name":"\u745e\u58eb"},{"city_id":"10567","city_name":"\u963f\u76ae\u4e9a","en_name":"Apia","pingyin":"apiya","latitude":"-13.833333","longitude":"-171.750000","ctry_id":"526","country_name":"\u8428\u6469\u4e9a"},{"city_id":"7195","city_name":"\u963f\u666e\u7279","en_name":"Apt","pingyin":"apute","latitude":"43.883331","longitude":"5.400000","ctry_id":"186","country_name":"\u6cd5\u56fd"},{"city_id":"10993","city_name":"\u963f\u8428\u52d2\u6e56","en_name":"Lake Assal","pingyin":"asalehu","latitude":"11.661163","longitude":"42.413506","ctry_id":"467","country_name":"\u5409\u5e03\u63d0"},{"city_id":"9413","city_name":"\u963f\u8428\u59c6\u90a6","en_name":"Assam","pingyin":"asamubang","latitude":"26.200603","longitude":"92.937576","ctry_id":"231","country_name":"\u5370\u5ea6"},{"city_id":"13586","city_name":"\u963f\u6c99\u82ac\u5821","en_name":"Aschaffenburg","pingyin":"ashafenbao","latitude":"49.980663","longitude":"9.135555","ctry_id":"15","country_name":"\u5fb7\u56fd"},{"city_id":"8923","city_name":"\u963f\u4ec0\u54c8\u5df4\u5fb7","en_name":"Ashgabat","pingyin":"ashenhabade","latitude":"37.950001","longitude":"58.383331","ctry_id":"552","country_name":"\u571f\u5e93\u66fc\u65af\u5766"},{"city_id":"9226","city_name":"\u963f\u4ec0\u5854\u62c9\u514b","en_name":"Ashtarak","pingyin":"ashentalake","latitude":"40.301666","longitude":"44.359165","ctry_id":"566","country_name":"\u4e9a\u7f8e\u5c3c\u4e9a"},{"city_id":"9274","city_name":"\u963f\u65af\u8482","en_name":"Asti","pingyin":"asidi","latitude":"44.900002","longitude":"8.200000","ctry_id":"189","country_name":"\u610f\u5927\u5229"},{"city_id":"9275","city_name":"\u963f\u65af\u79d1\u5229\u76ae\u5207\u8bfa","en_name":"Ascoli piceno","pingyin":"asikelipiqienuo","latitude":"42.849998","longitude":"13.566667","ctry_id":"189","country_name":"\u610f\u5927\u5229"},{"city_id":"6435","city_name":"\u963f\u65af\u9686","en_name":"Athlone","pingyin":"asilong","latitude":"53.422779","longitude":"-7.937222","ctry_id":"406","country_name":"\u7231\u5c14\u5170"},{"city_id":"7190","city_name":"\u963f\u65af\u9a6c\u62c9","en_name":"Asmara","pingyin":"asimala","latitude":"15.333333","longitude":"38.933334","ctry_id":"444","country_name":"\u5384\u7acb\u7279\u91cc\u4e9a"},{"city_id":"13590","city_name":"\u963f\u65af\u7c73\u5c14","en_name":"Aalsmeer","pingyin":"asimier","latitude":"52.262165","longitude":"4.761922","ctry_id":"200","country_name":"\u8377\u5170"},{"city_id":"6409","city_name":"\u963f\u65af\u5854\u62c9","en_name":"Astara","pingyin":"asitala","latitude":"38.456112","longitude":"48.878613","ctry_id":"404","country_name":"\u963f\u585e\u62dc\u7586"},{"city_id":"7410","city_name":"\u963f\u65af\u5854\u7eb3","en_name":"Astana","pingyin":"asitana","latitude":"51.181110","longitude":"71.427780","ctry_id":"461","country_name":"\u54c8\u8428\u514b\u65af\u5766"},{"city_id":"10381","city_name":"\u963f\u65af\u7279\u62c9\u7f55","en_name":"Astrakhan","pingyin":"asitelahan","latitude":"46.350235","longitude":"48.032173","ctry_id":"208","country_name":"\u4fc4\u7f57\u65af"},{"city_id":"11226","city_name":"\u963f\u65af\u56fe\u91cc\u4e9a\u65af","en_name":"Asturias","pingyin":"asituliyasi","latitude":"43.250439","longitude":"-5.983258","ctry_id":"182","country_name":"\u897f\u73ed\u7259"},{"city_id":"6416","city_name":"\u963f\u65af\u65fa","en_name":"Aswan","pingyin":"asiwang","latitude":"24.087500","longitude":"32.898888","ctry_id":"244","country_name":"\u57c3\u53ca"},{"city_id":"8523","city_name":"\u963f\u82cf\u5c71\u5730\u533a","en_name":"Aso san area","pingyin":"asushandiqu","latitude":"32.685619","longitude":"130.946045","ctry_id":"14","country_name":"\u65e5\u672c"},{"city_id":"13591","city_name":"\u963f\u82cf\u5e02","en_name":"Aso","pingyin":"asushi","latitude":"32.955841","longitude":"131.095581","ctry_id":"14","country_name":"\u65e5\u672c"},{"city_id":"11372","city_name":"\u963f\u5854\u5361\u9a6c\u6c99\u6f20","en_name":"Atacama Desert","pingyin":"atakamashamo","latitude":"-23.369543","longitude":"-69.859741","ctry_id":"575","country_name":"\u667a\u5229"},{"city_id":"11299","city_name":"\u963f\u7279\u6e56","en_name":"Attersee","pingyin":"atehu","latitude":"47.914753","longitude":"13.534575","ctry_id":"198","country_name":"\u5965\u5730\u5229"},{"city_id":"13231","city_name":"\u963f\u63d0\u5361\u5927\u533a","en_name":"Attica","pingyin":"atikadaqu","latitude":"38.045757","longitude":"23.858475","ctry_id":"206","country_name":"\u5e0c\u814a"},{"city_id":"8902","city_name":"\u963f\u74e6\u8bfa\u65af","en_name":"Avanos","pingyin":"awanuosi","latitude":"38.715000","longitude":"34.846668","ctry_id":"195","country_name":"\u571f\u8033\u5176"},{"city_id":"10890","city_name":"\u963f\u74e6\u8428","en_name":"Awasa","pingyin":"awasa","latitude":"7.060202","longitude":"38.476711","ctry_id":"405","country_name":"\u57c3\u585e\u4fc4\u6bd4\u4e9a"},{"city_id":"10732","city_name":"\u963f\u74e6\u58eb","en_name":"Ahvaz","pingyin":"awashi","latitude":"31.316710","longitude":"48.684380","ctry_id":"568","country_name":"\u4f0a\u6717"},{"city_id":"10266","city_name":"\u963f\u7ef4\u62c9","en_name":"\u00c1vila","pingyin":"aweila","latitude":"40.662594","longitude":"-4.695817","ctry_id":"182","country_name":"\u897f\u73ed\u7259"},{"city_id":"11192","city_name":"\u963f\u5a01\u7f57","en_name":"Aveiro","pingyin":"aweiluo","latitude":"40.640507","longitude":"-8.653754","ctry_id":"523","country_name":"\u8461\u8404\u7259"},{"city_id":"7196","city_name":"\u963f\u7ef4\u5c3c\u7fc1","en_name":"Avignon","pingyin":"aweiniweng","latitude":"43.949318","longitude":"4.805528","ctry_id":"186","country_name":"\u6cd5\u56fd"},{"city_id":"13593","city_name":"\u963f\u7ef4\u5c3c\u7fc1\u65b0\u57ce","en_name":"Villeneuve-l\u00e8s-Avignon","pingyin":"aweiniwengxincheng","latitude":"43.963409","longitude":"4.796959","ctry_id":"186","country_name":"\u6cd5\u56fd"},{"city_id":"9276","city_name":"\u963f\u897f\u897f","en_name":"Assisi","pingyin":"axixi","latitude":"43.066666","longitude":"12.616667","ctry_id":"189","country_name":"\u610f\u5927\u5229"},{"city_id":"7197","city_name":"\u963f\u96c5\u514b\u8096","en_name":"Ajaccio","pingyin":"ayakexiao","latitude":"41.919228","longitude":"8.738635","ctry_id":"186","country_name":"\u6cd5\u56fd"},{"city_id":"15561","city_name":"\u963f\u4f9d\u7eb3\u5e15","en_name":"Ayia Napa","pingyin":"ayinapa","latitude":"34.992283","longitude":"34.014011","ctry_id":"530","country_name":"\u585e\u6d66\u8def\u65af"},{"city_id":"10433","city_name":"\u963f\u5c24\u6069","en_name":"El Aai\u00fan","pingyin":"ayouen","latitude":"27.153610","longitude":"-13.203333","ctry_id":"1062","country_name":"\u897f\u6492\u54c8\u62c9"},{"city_id":"13595","city_name":"\u963f\u5bb0\u52d2\u91cc\u591a","en_name":"Azay-le-Rideau","pingyin":"azaileliduo","latitude":"47.261768","longitude":"0.465740","ctry_id":"186","country_name":"\u6cd5\u56fd"},{"city_id":"9414","city_name":"\u963f\u65c3\u9640","en_name":"Ajanta","pingyin":"azhantuo","latitude":"20.533333","longitude":"75.750000","ctry_id":"231","country_name":"\u5370\u5ea6"}]},{"section":"b","list":[{"city_id":"8504","city_name":"\u5df4\u4f2f\u5c14\u56fe\u963f\u666e\u5c9b","en_name":"Babeldaob Island","pingyin":"baboerdaaobudao","latitude":"7.494209","longitude":"134.569016","ctry_id":"522","country_name":"\u5e15\u52b3"},{"city_id":"10405","city_name":"\u5df4\u5e03\u4e9a","en_name":"Papua","pingyin":"babuya","latitude":"-4.269928","longitude":"138.080353","ctry_id":"570","country_name":"\u5370\u5ea6\u5c3c\u897f\u4e9a"},{"city_id":"6601","city_name":"\u5df4\u5f7b\u52d2","en_name":"Batchelor","pingyin":"bachele","latitude":"-13.066667","longitude":"131.016663","ctry_id":"240","country_name":"\u6fb3\u5927\u5229\u4e9a"},{"city_id":"10104","city_name":"\u516b\u6253\u7075\u518d\u4e5f","en_name":"Petaling Jaya","pingyin":"badalingzaiye","latitude":"3.107094","longitude":"101.608253","ctry_id":"213","country_name":"\u9a6c\u6765\u897f\u4e9a"},{"city_id":"13698","city_name":"\u5df4\u8fbe\u6d1b\u7eb3","en_name":"Badalona","pingyin":"badaluona","latitude":"41.446987","longitude":"2.245033","ctry_id":"182","country_name":"\u897f\u73ed\u7259"},{"city_id":"13696","city_name":"\u516b\u4e39\u62dc","en_name":"Padangbai","pingyin":"badanbai","latitude":"-8.529898","longitude":"115.507408","ctry_id":"570","country_name":"\u5370\u5ea6\u5c3c\u897f\u4e9a"},{"city_id":"10427","city_name":"\u5df4\u6de1\u5c9b","en_name":"Batam Island","pingyin":"badandao","latitude":"1.082828","longitude":"104.030457","ctry_id":"570","country_name":"\u5370\u5ea6\u5c3c\u897f\u4e9a"},{"city_id":"12469","city_name":"\u5df4\u4e39\u5409\u6797\u6c99\u6f20","en_name":"Badanjilinshamo","pingyin":"badanjilinshamo","latitude":"39.725899","longitude":"102.621002","ctry_id":"11","country_name":"\u4e2d\u56fd"},{"city_id":"83","city_name":"\u5df4\u5fb7\u5c97","en_name":"Bhaktapur","pingyin":"badegang","latitude":"27.673031","longitude":"85.427856","ctry_id":"220","country_name":"\u5c3c\u6cca\u5c14"},{"city_id":"13699","city_name":"\u5df4\u5fb7\u54e5\u4f9d\u65af\u6069","en_name":"Bad Goisern","pingyin":"badegeyisien","latitude":"47.646221","longitude":"13.615888","ctry_id":"198","country_name":"\u5965\u5730\u5229"},{"city_id":"10088","city_name":"\u5df4\u767b","en_name":"Baden","pingyin":"badeng","latitude":"47.465473","longitude":"8.310702","ctry_id":"524","country_name":"\u745e\u58eb"},{"city_id":"7024","city_name":"\u5df4\u767b-\u5df4\u767b","en_name":"Baden baden","pingyin":"badengbadeng","latitude":"48.765640","longitude":"8.228524","ctry_id":"15","country_name":"\u5fb7\u56fd"},{"city_id":"7025","city_name":"\u5df4\u767b\u7b26\u817e\u5821\u5dde","en_name":"Baden Wurttemberg","pingyin":"badengfutengbaozhou","latitude":"48.661606","longitude":"9.350134","ctry_id":"15","country_name":"\u5fb7\u56fd"},{"city_id":"8804","city_name":"\u82ad\u5824\u96c5","en_name":"Pattaya","pingyin":"badiya","latitude":"12.927500","longitude":"100.875275","ctry_id":"215","country_name":"\u6cf0\u56fd"},{"city_id":"9489","city_name":"\u5df4\u4e1c\uff08\u82cf\u95e8\u7b54\u814a\uff09","en_name":"Padang","pingyin":"badong","latitude":"-0.944806","longitude":"100.356934","ctry_id":"570","country_name":"\u5370\u5ea6\u5c3c\u897f\u4e9a"},{"city_id":"13340","city_name":"\u5df4\u90fd\u4e01\u5b9c","en_name":"Batu Ferringhi","pingyin":"badoudingyi","latitude":"5.473490","longitude":"100.248528","ctry_id":"213","country_name":"\u9a6c\u6765\u897f\u4e9a"},{"city_id":"8701","city_name":"\u5df4\u675c\u52d2","en_name":"Badulla","pingyin":"badule","latitude":"6.984722","longitude":"81.056389","ctry_id":"537","country_name":"\u65af\u91cc\u5170\u5361"},{"city_id":"7260","city_name":"\u5df4\u987f\u6e2f","en_name":"Port barton","pingyin":"badungang","latitude":"10.475556","longitude":"119.247223","ctry_id":"446","country_name":"\u83f2\u5f8b\u5bbe"},{"city_id":"11420","city_name":"\u5df4\u591a\u5185\u57fa\u4e9a","en_name":"Bardonecchia","pingyin":"baduoneijiya","latitude":"45.074287","longitude":"6.696051","ctry_id":"189","country_name":"\u610f\u5927\u5229"},{"city_id":"8727","city_name":"\u5df4\u5c14\u4ee3\u7ea6\u592b","en_name":"Bardejov","pingyin":"baerdaiyuefu","latitude":"49.283333","longitude":"21.283333","ctry_id":"538","country_name":"\u65af\u6d1b\u4f10\u514b"},{"city_id":"7887","city_name":"\u5df4\u5c14\u7684\u6469","en_name":"Baltimore","pingyin":"baerdemo","latitude":"39.290386","longitude":"-76.612190","ctry_id":"236","country_name":"\u7f8e\u56fd"},{"city_id":"13351","city_name":"\u5df4\u5c14\u6e2f","en_name":"Bar Harbor","pingyin":"baergang","latitude":"44.387611","longitude":"-68.203911","ctry_id":"236","country_name":"\u7f8e\u56fd"},{"city_id":"6342","city_name":"\u5df4\u5c14\u8d6b","en_name":"Balkh","pingyin":"baerhe","latitude":"36.758610","longitude":"66.896111","ctry_id":"401","country_name":"\u963f\u5bcc\u6c57"},{"city_id":"7480","city_name":"\u9ed1\u5c71\u5df4\u5c14","en_name":"Bar","pingyin":"baerhe","latitude":"42.087994","longitude":"19.105141","ctry_id":"464","country_name":"\u9ed1\u5c71"},{"city_id":"7098","city_name":"\u5df4\u5c14\u7459\u5c14","en_name":"Barnaul","pingyin":"baernaoer","latitude":"53.355831","longitude":"83.752220","ctry_id":"208","country_name":"\u4fc4\u7f57\u65af"},{"city_id":"7026","city_name":"\u5df4\u4f10\u5229\u4e9a","en_name":"Bavaria","pingyin":"bafaliya","latitude":"48.790447","longitude":"11.497889","ctry_id":"15","country_name":"\u5fb7\u56fd"},{"city_id":"11516","city_name":"\u5df4\u82ac\u5c9b","en_name":"Baffin Island","pingyin":"bafendao","latitude":"65.421509","longitude":"-70.965424","ctry_id":"238","country_name":"\u52a0\u62ff\u5927"},{"city_id":"10169","city_name":"\u5df4\u683c\u8fbe","en_name":"Baghdad","pingyin":"bageda","latitude":"33.325001","longitude":"44.422001","ctry_id":"1035","country_name":"\u4f0a\u62c9\u514b"},{"city_id":"8223","city_name":"\u5df4\u683c\u54c8\u7279","en_name":"Bagerhat","pingyin":"bagehate","latitude":"22.660286","longitude":"89.792625","ctry_id":"508","country_name":"\u5b5f\u52a0\u62c9\u56fd"},{"city_id":"10166","city_name":"\u5df4\u683c\u5170","en_name":"Baghlan","pingyin":"bagelan","latitude":"36.178902","longitude":"68.745308","ctry_id":"401","country_name":"\u963f\u5bcc\u6c57"},{"city_id":"11430","city_name":"\u5df4\u54c8\u62c9","en_name":"Bacharach","pingyin":"bahala","latitude":"50.056877","longitude":"7.769452","ctry_id":"15","country_name":"\u5fb7\u56fd"},{"city_id":"10414","city_name":"\u5df4\u54c8\u9a6c\u957f\u5c9b","en_name":"Long Island Bahama","pingyin":"bahamachangdao","latitude":"23.176424","longitude":"-75.096153","ctry_id":"413","country_name":"\u5df4\u54c8\u9a6c"},{"city_id":"6427","city_name":"\u5df4\u8d6b\u8fbe\u5c14","en_name":"Bahir dar","pingyin":"bahedaer","latitude":"11.600000","longitude":"37.383331","ctry_id":"405","country_name":"\u57c3\u585e\u4fc4\u6bd4\u4e9a"},{"city_id":"8978","city_name":"\u5df4\u8d6b\u5947\u8428\u8d56","en_name":"Bakhchysaray","pingyin":"baheqisalai","latitude":"44.750000","longitude":"33.866669","ctry_id":"560","country_name":"\u4e4c\u514b\u5170"},{"city_id":"13728","city_name":"\u82ad\u73af\u7901","en_name":"Baa Atoll","pingyin":"bahuanjiao","latitude":"4.870960","longitude":"72.999825","ctry_id":"497","country_name":"\u9a6c\u5c14\u4ee3\u592b"},{"city_id":"15550","city_name":"\u516b\u6237\u5e02","en_name":"Hachinohe-shi","pingyin":"bahushi","latitude":"40.512283","longitude":"141.488403","ctry_id":"14","country_name":"\u65e5\u672c"},{"city_id":"8525","city_name":"\u767d\u6ee8","en_name":"Shirahama","pingyin":"baibin","latitude":"33.678165","longitude":"135.348129","ctry_id":"14","country_name":"\u65e5\u672c"},{"city_id":"11617","city_name":"\u767d\u57ce","en_name":"Baicheng","pingyin":"baicheng","latitude":"45.619640","longitude":"122.839027","ctry_id":"11","country_name":"\u4e2d\u56fd"},{"city_id":"12766","city_name":"\u62dc\u57ce","en_name":"Baicheng","pingyin":"baicheng","latitude":"41.796909","longitude":"81.874153","ctry_id":"11","country_name":"\u4e2d\u56fd"},{"city_id":"13730","city_name":"\u767d\u5ddd\u6751","en_name":"Shirakawa, Gifu","pingyin":"baichuancun","latitude":"36.270805","longitude":"136.898483","ctry_id":"14","country_name":"\u65e5\u672c"},{"city_id":"15456","city_name":"\u767d\u5ddd\u4e61","en_name":"Shirakawa G\u014d","pingyin":"baichuanxiang","latitude":"36.270805","longitude":"136.898483","ctry_id":"14","country_name":"\u65e5\u672c"},{"city_id":"8702","city_name":"\u62dc\u8482\u514b\u6d1b","en_name":"Batticaloa","pingyin":"baidikeluo","latitude":"7.716667","longitude":"81.699997","ctry_id":"537","country_name":"\u65af\u91cc\u5170\u5361"},{"city_id":"13217","city_name":"\u767d\u91d1\u6c49\u90e1","en_name":"Buckinghamshire","pingyin":"baijinhanjun","latitude":"51.807220","longitude":"-0.812766","ctry_id":"13","country_name":"\u82f1\u56fd"},{"city_id":"12651","city_name":"\u767d\u6717","en_name":"Bailang","pingyin":"bailang","latitude":"29.107689","longitude":"89.261978","ctry_id":"11","country_name":"\u4e2d\u56fd"},{"city_id":"8968","city_name":"\u767d\u62c9\u5955","en_name":"Kuala belait","pingyin":"bailayi","latitude":"4.583333","longitude":"114.183334","ctry_id":"558","country_name":"\u6587\u83b1"},{"city_id":"7653","city_name":"\u62dc\u6797","en_name":"Pailin","pingyin":"bailin","latitude":"12.850556","longitude":"102.609718","ctry_id":"219","country_name":"\u67ec\u57d4\u5be8"},{"city_id":"6604","city_name":"\u62dc\u4f26\u6e7e","en_name":"Byron bay","pingyin":"bailunwan","latitude":"-28.650000","longitude":"153.616669","ctry_id":"240","country_name":"\u6fb3\u5927\u5229\u4e9a"},{"city_id":"9978","city_name":"\u62dc\u7f57\u4f0a\u7279","en_name":"Bayreuth","pingyin":"bailuoyite","latitude":"49.945641","longitude":"11.571335","ctry_id":"15","country_name":"\u5fb7\u56fd"},{"city_id":"8526","city_name":"\u767d\u9a6c\u6751","en_name":"Hakuba","pingyin":"baimacun","latitude":"36.698181","longitude":"137.861847","ctry_id":"14","country_name":"\u65e5\u672c"},{"city_id":"7536","city_name":"\u767d\u9a6c\u5e02","en_name":"Whitehorse","pingyin":"baimashi","latitude":"60.716667","longitude":"-135.050003","ctry_id":"238","country_name":"\u52a0\u62ff\u5927"},{"city_id":"7651","city_name":"\u67ec\u57d4\u5be8\u767d\u9a6c\u5e02","en_name":"Kep city","pingyin":"baimashi","latitude":"10.496721","longitude":"104.318100","ctry_id":"219","country_name":"\u67ec\u57d4\u5be8"},{"city_id":"10739","city_name":"\u767e\u5185\u56fd\u5bb6\u516c\u56ed","en_name":"Torres del Paine National Park","pingyin":"baineiguojiagongyuan","latitude":"-50.985233","longitude":"-73.005524","ctry_id":"575","country_name":"\u667a\u5229"},{"city_id":"6858","city_name":"\u67cf\u57f9\u62c9","en_name":"Berbera","pingyin":"baipeilabobeila","latitude":"10.435556","longitude":"45.016388","ctry_id":"420","country_name":"\u7d22\u9a6c\u91cc"},{"city_id":"12067","city_name":"\u767e\u8272","en_name":"Baise","pingyin":"baise","latitude":"23.902332","longitude":"106.618202","ctry_id":"11","country_name":"\u4e2d\u56fd"},{"city_id":"12458","city_name":"\u767d\u6c99","en_name":"Baisha","pingyin":"baisha","latitude":"19.224873","longitude":"109.451477","ctry_id":"11","country_name":"\u4e2d\u56fd"},{"city_id":"10460","city_name":"\u767d\u6c99\u5c9b","en_name":"Pulau Besar","pingyin":"baishadao","latitude":"2.438030","longitude":"103.981117","ctry_id":"213","country_name":"\u9a6c\u6765\u897f\u4e9a"},{"city_id":"11615","city_name":"\u767d\u5c71\u5e02","en_name":"Baishanshi","pingyin":"baishanshi","latitude":"41.940166","longitude":"126.425797","ctry_id":"11","country_name":"\u4e2d\u56fd"},{"city_id":"6770","city_name":"\u767d\u6c99\u74e6","en_name":"Peshawar","pingyin":"baishawa","latitude":"34.007778","longitude":"71.573334","ctry_id":"414","country_name":"\u5df4\u57fa\u65af\u5766"},{"city_id":"12085","city_name":"\u767d\u5bfa\u6751","en_name":"Baisicun","pingyin":"baisicun","latitude":"35.679867","longitude":"114.448135","ctry_id":"11","country_name":"\u4e2d\u56fd"},{"city_id":"10425","city_name":"\u62dc\u7ef4\u63d0","en_name":"Bawiti","pingyin":"baiweiti","latitude":"28.348841","longitude":"28.850161","ctry_id":"244","country_name":"\u57c3\u53ca"},{"city_id":"7652","city_name":"\u67cf\u5a01\u590f","en_name":"Preah Vihear","pingyin":"baiweixia","latitude":"14.393166","longitude":"104.680023","ctry_id":"219","country_name":"\u67ec\u57d4\u5be8"},{"city_id":"8806","city_name":"\u62dc\u53bf","en_name":"Pai","pingyin":"baixian","latitude":"19.316668","longitude":"98.449997","ctry_id":"215","country_name":"\u6cf0\u56fd"},{"city_id":"11667","city_name":"\u767d\u6d0b\u6dc0","en_name":"Baiyangdian","pingyin":"baiyangdian","latitude":"38.867794","longitude":"116.047302","ctry_id":"11","country_name":"\u4e2d\u56fd"},{"city_id":"11788","city_name":"\u767d\u94f6","en_name":"Baiyin","pingyin":"baiyin","latitude":"36.544758","longitude":"104.138557","ctry_id":"11","country_name":"\u4e2d\u56fd"},{"city_id":"11805","city_name":"\u767d\u7389","en_name":"Baiyu","pingyin":"baiyu","latitude":"31.209913","longitude":"98.824181","ctry_id":"11","country_name":"\u4e2d\u56fd"},{"city_id":"12828","city_name":"\u767d\u7389\u53bf","en_name":"Baiyuxian","pingyin":"baiyuxian","latitude":"31.209913","longitude":"98.824181","ctry_id":"11","country_name":"\u4e2d\u56fd"},{"city_id":"8872","city_name":"\u5df4\u52a0\u83ab\u7ea6","en_name":"Bagamoyo","pingyin":"bajiamoyue","latitude":"-6.445776","longitude":"38.899601","ctry_id":"546","country_name":"\u5766\u6851\u5c3c\u4e9a"},{"city_id":"9490","city_name":"\u5df4\u8d3e\u74e6","en_name":"Bajawa","pingyin":"bajiawa","latitude":"-8.783333","longitude":"120.983330","ctry_id":"570","country_name":"\u5370\u5ea6\u5c3c\u897f\u4e9a"},{"city_id":"13349","city_name":"\u5df4\u514b\u62c9\u6d0b","en_name":"Baclayon","pingyin":"bakelayang","latitude":"9.633333","longitude":"123.900002","ctry_id":"446","country_name":"\u83f2\u5f8b\u5bbe"},{"city_id":"7261","city_name":"\u5df4\u79d1\u6d1b\u5fb7","en_name":"Bacolod","pingyin":"bakeluodemiaogelv","latitude":"10.656424","longitude":"122.956223","ctry_id":"446","country_name":"\u83f2\u5f8b\u5bbe"},{"city_id":"9550","city_name":"\u5df4\u514b\u65af\u987f","en_name":"Buxton","pingyin":"bakesidun","latitude":"53.250000","longitude":"-1.916667","ctry_id":"13","country_name":"\u82f1\u56fd"},{"city_id":"9877","city_name":"\u5df4\u5e93","en_name":"Baku","pingyin":"baku","latitude":"40.434952","longitude":"49.867622","ctry_id":"404","country_name":"\u963f\u585e\u62dc\u7586"},{"city_id":"7387","city_name":"\u5df4\u62c9\u5fb7\u7f57","en_name":"Varadero","pingyin":"baladeluo","latitude":"23.153610","longitude":"-81.251389","ctry_id":"458","country_name":"\u53e4\u5df4"},{"city_id":"7388","city_name":"\u5df4\u62c9\u79d1\u963f","en_name":"Baracoa","pingyin":"balakea","latitude":"20.350771","longitude":"-74.502449","ctry_id":"458","country_name":"\u53e4\u5df4"},{"city_id":"10735","city_name":"\u5df4\u5170\u57fa\u4e9a","en_name":"Barranquilla","pingyin":"balanjiya","latitude":"10.964210","longitude":"-74.797043","ctry_id":"453","country_name":"\u54e5\u4f26\u6bd4\u4e9a"},{"city_id":"13146","city_name":"\u5df4\u62c9\u745e\u7279","en_name":"Ballarat","pingyin":"balaruite","latitude":"-37.563648","longitude":"143.867188","ctry_id":"240","country_name":"\u6fb3\u5927\u5229\u4e9a"},{"city_id":"9786","city_name":"\u5df4\u62c9\u65af\u6e2f","en_name":"Puerto varas","pingyin":"balasigang","latitude":"-41.316666","longitude":"-72.983330","ctry_id":"575","country_name":"\u667a\u5229"},{"city_id":"7262","city_name":"\u5df4\u62c9\u671b\u5c9b","en_name":"Palawan","pingyin":"balawangdao","latitude":"9.839055","longitude":"118.736343","ctry_id":"446","country_name":"\u83f2\u5f8b\u5bbe"},{"city_id":"10636","city_name":"\u5df4\u52d2\u8d1d\u514b","en_name":"Baalbek","pingyin":"balebeike","latitude":"34.004688","longitude":"36.211040","ctry_id":"488","country_name":"\u9ece\u5df4\u5ae9"},{"city_id":"11118","city_name":"\u5df4\u96f7\u514b\u5947","en_name":"Balykchy","pingyin":"baleikeqi","latitude":"42.466667","longitude":"76.183334","ctry_id":"468","country_name":"\u5409\u5c14\u5409\u65af\u65af\u5766"},{"city_id":"10354","city_name":"\u5df4\u52d2\u7eb3\u7ecd","en_name":"Baarle-Nassau","pingyin":"balenashao","latitude":"51.445137","longitude":"4.929523","ctry_id":"200","country_name":"\u8377\u5170"},{"city_id":"20","city_name":"\u5df4\u9ece","en_name":"Paris","pingyin":"bali","latitude":"48.856613","longitude":"2.352222","ctry_id":"186","country_name":"\u6cd5\u56fd"},{"city_id":"9287","city_name":"\u5df4\u91cc","en_name":"Bari","pingyin":"bali","latitude":"41.133331","longitude":"16.850000","ctry_id":"189","country_name":"\u610f\u5927\u5229"},{"city_id":"10740","city_name":"\u5df4\u5ed6","en_name":"Bario","pingyin":"bali","latitude":"3.746437","longitude":"115.451508","ctry_id":"213","country_name":"\u9a6c\u6765\u897f\u4e9a"},{"city_id":"11227","city_name":"\u5df4\u5229\u963f\u91cc\u7fa4\u5c9b","en_name":"Balearic Islands","pingyin":"balialiqundao","latitude":"39.500000","longitude":"3.000000","ctry_id":"182","country_name":"\u897f\u73ed\u7259"},{"city_id":"9491","city_name":"\u5df4\u91cc\u5df4\u677f","en_name":"Balikpapan","pingyin":"balibaban","latitude":"-1.283333","longitude":"116.833336","ctry_id":"570","country_name":"\u5370\u5ea6\u5c3c\u897f\u4e9a"},{"city_id":"9492","city_name":"\u5df4\u5398\u5c9b","en_name":"Bali","pingyin":"balidao","latitude":"-8.273642","longitude":"115.210892","ctry_id":"570","country_name":"\u5370\u5ea6\u5c3c\u897f\u4e9a"},{"city_id":"13710","city_name":"\u5df4\u91cc\u6566","en_name":"Barrytown","pingyin":"balidun","latitude":"-42.243813","longitude":"171.326538","ctry_id":"241","country_name":"\u65b0\u897f\u5170"},{"city_id":"10701","city_name":"\u5df4\u5217\u59c6\u5c71\u8c37","en_name":"Baliem Valley","pingyin":"baliemushangu","latitude":"-4.098681","longitude":"138.962433","ctry_id":"570","country_name":"\u5370\u5ea6\u5c3c\u897f\u4e9a"},{"city_id":"12729","city_name":"\u5df4\u91cc\u5764\u53bf","en_name":"Balikunxian","pingyin":"balikunxian","latitude":"43.599152","longitude":"93.016609","ctry_id":"11","country_name":"\u4e2d\u56fd"},{"city_id":"6602","city_name":"\u5df4\u5229\u7eb3","en_name":"Ballina","pingyin":"balina","latitude":"-28.866667","longitude":"153.566666","ctry_id":"240","country_name":"\u6fb3\u5927\u5229\u4e9a"},{"city_id":"10719","city_name":"\u5df4\u91cc\u7eb3\u65af","en_name":"Barinas","pingyin":"balinasi","latitude":"8.630485","longitude":"-70.209908","ctry_id":"557","country_name":"\u59d4\u5185\u745e\u62c9"},{"city_id":"10293","city_name":"\u5df4\u91cc\u65af\u5ddd","en_name":"Balestrand","pingyin":"balisichuan","latitude":"61.207573","longitude":"6.533415","ctry_id":"521","country_name":"\u632a\u5a01"},{"city_id":"13341","city_name":"\u5df4\u516d\u62dc","en_name":"Bayan Lepas","pingyin":"baliubai","latitude":"5.294464","longitude":"100.259331","ctry_id":"213","country_name":"\u9a6c\u6765\u897f\u4e9a"},{"city_id":"6440","city_name":"\u5df4\u5229\u9999\u519c","en_name":"Ballyshannon","pingyin":"balixiangnong","latitude":"54.500000","longitude":"-8.183333","ctry_id":"406","country_name":"\u7231\u5c14\u5170"},