[{"section":"a","list":[{"city_id":"11752","city_name":"\u963f\u575d\u5dde","en_name":"Aba","pingyin":"aba","latitude":"31.899412","longitude":"102.224655","ctry_id":"11","country_name":"\u4e2d\u56fd"},{"city_id":"10729","city_name":"\u963f\u5df4\u65af\u6e2f","en_name":"Bandar Abbas","pingyin":"abasigang","latitude":"27.183332","longitude":"56.266666","ctry_id":"568","country_name":"\u4f0a\u6717"},{"city_id":"11202","city_name":"\u963f\u6bd4\u7eb3\u5e15\u4fdd\u62a4\u533a","en_name":"Api Nampa Conservation Area","pingyin":"abinapabaohuqu","latitude":"29.936346","longitude":"80.898651","ctry_id":"220","country_name":"\u5c3c\u6cca\u5c14"},{"city_id":"7698","city_name":"\u963f\u6bd4\u8ba9","en_name":"Abidjan","pingyin":"abirang","latitude":"5.341111","longitude":"-4.028056","ctry_id":"480","country_name":"\u79d1\u7279\u8fea\u74e6"},{"city_id":"8623","city_name":"\u963f\u6bd4\u65af\u5e93","en_name":"Abisko","pingyin":"abisiku","latitude":"68.333336","longitude":"18.850000","ctry_id":"202","country_name":"\u745e\u5178"},{"city_id":"10488","city_name":"\u963f\u4f2f\u5fb7\u5c14\u56fd\u5bb6\u516c\u56ed","en_name":"Aberdare National Park","pingyin":"abodeerguojiagongyuan","latitude":"-0.416667","longitude":"36.666668","ctry_id":"483","country_name":"\u80af\u5c3c\u4e9a"},{"city_id":"8751","city_name":"\u963f\u4f2f\u4e01","en_name":"Aberdeen","pingyin":"aboding","latitude":"57.133331","longitude":"-2.100000","ctry_id":"13","country_name":"\u82f1\u56fd"},{"city_id":"10325","city_name":"\u963f\u6ce2\u7f57\u5c0f\u9547","en_name":"Apollo Bay","pingyin":"aboluoxiaozhen","latitude":"-38.757168","longitude":"143.669617","ctry_id":"240","country_name":"\u6fb3\u5927\u5229\u4e9a"},{"city_id":"8438","city_name":"\u963f\u5e03\u8d3e","en_name":"Abuja","pingyin":"abujia","latitude":"9.072784","longitude":"7.482957","ctry_id":"520","country_name":"\u5c3c\u65e5\u5229\u4e9a"},{"city_id":"13236","city_name":"\u963f\u5e03\u9c81\u4f50\u5927\u533a","en_name":"Abruzzo","pingyin":"abuluzuodaqu","latitude":"42.192013","longitude":"13.728917","ctry_id":"189","country_name":"\u610f\u5927\u5229"},{"city_id":"10480","city_name":"\u963f\u5e03\u8f9b\u8d1d","en_name":"Abu Simbel","pingyin":"abuxinbei","latitude":"22.374437","longitude":"31.602772","ctry_id":"244","country_name":"\u57c3\u53ca"},{"city_id":"6403","city_name":"\u963f\u5e03\u624e\u6bd4","en_name":"Abu dhabi","pingyin":"abuzhabi","latitude":"24.466667","longitude":"54.366669","ctry_id":"402","country_name":"\u963f\u8054\u914b"},{"city_id":"12328","city_name":"\u963f\u57ce","en_name":"Acheng","pingyin":"acheng","latitude":"45.548672","longitude":"126.958099","ctry_id":"11","country_name":"\u4e2d\u56fd"},{"city_id":"11387","city_name":"\u963f\u8fbe\u7eb3","en_name":"Adana","pingyin":"adana","latitude":"37.000000","longitude":"35.321335","ctry_id":"195","country_name":"\u571f\u8033\u5176"},{"city_id":"6591","city_name":"\u963f\u5fb7\u83b1\u5fb7","en_name":"Adelaide","pingyin":"adelaide","latitude":"-34.933334","longitude":"138.600006","ctry_id":"240","country_name":"\u6fb3\u5927\u5229\u4e9a"},{"city_id":"7881","city_name":"\u963f\u5c14\u5df4\u5c3c","en_name":"Albany","pingyin":"aerbani","latitude":"42.652580","longitude":"-73.756233","ctry_id":"236","country_name":"\u7f8e\u56fd"},{"city_id":"9268","city_name":"\u963f\u5c14\u8d1d\u7f57\u8d1d\u6d1b","en_name":"Alberobello","pingyin":"aerbeiluobeiluo","latitude":"40.786423","longitude":"17.240931","ctry_id":"189","country_name":"\u610f\u5927\u5229"},{"city_id":"7191","city_name":"\u963f\u5c14\u6bd4","en_name":"Albi","pingyin":"aerbiaerbi","latitude":"43.933334","longitude":"2.150000","ctry_id":"186","country_name":"\u6cd5\u56fd"},{"city_id":"11094","city_name":"\u963f\u5c14\u5e03\u8d39\u62c9","en_name":"Albufeira","pingyin":"aerbufeila","latitude":"37.089073","longitude":"-8.247880","ctry_id":"523","country_name":"\u8461\u8404\u7259"},{"city_id":"7864","city_name":"\u963f\u5c14\u4f2f\u514b\u57fa","en_name":"Albuquerque","pingyin":"aerbukaike","latitude":"35.084442","longitude":"-106.650558","ctry_id":"236","country_name":"\u7f8e\u56fd"},{"city_id":"9269","city_name":"\u963f\u5c14\u76d6\u7f57","en_name":"Alghero","pingyin":"aergailuo","latitude":"40.558887","longitude":"8.318056","ctry_id":"189","country_name":"\u610f\u5927\u5229"},{"city_id":"13185","city_name":"\u963f\u5c14\u9ad8\u5dde","en_name":"Kanton Aargau","pingyin":"aergaozhou","latitude":"47.387665","longitude":"8.255429","ctry_id":"524","country_name":"\u745e\u58eb"},{"city_id":"11232","city_name":"\u963f\u5c14\u6208\u65af","en_name":"Argos","pingyin":"aergesi","latitude":"37.635174","longitude":"22.728859","ctry_id":"206","country_name":"\u5e0c\u814a"},{"city_id":"9066","city_name":"\u963f\u5c14\u8d6b\u897f\u62c9\u65af","en_name":"Algeciras","pingyin":"aerhexilasi","latitude":"36.127499","longitude":"-5.453889","ctry_id":"182","country_name":"\u897f\u73ed\u7259"},{"city_id":"6326","city_name":"\u963f\u5c14\u53ca\u5c14","en_name":"Algiers","pingyin":"aerjier","latitude":"36.763058","longitude":"3.050556","ctry_id":"400","country_name":"\u963f\u5c14\u53ca\u5229\u4e9a"},{"city_id":"11190","city_name":"\u963f\u5c14\u79d1\u5df4\u8428","en_name":"Alcoba\u00e7a","pingyin":"aerkebasa","latitude":"39.548668","longitude":"-8.979649","ctry_id":"523","country_name":"\u8461\u8404\u7259"},{"city_id":"10138","city_name":"\u963f\u5c14\u514b\u9a6c\u5c14","en_name":"Alkmaar","pingyin":"aerkemaer","latitude":"52.632282","longitude":"4.750806","ctry_id":"200","country_name":"\u8377\u5170"},{"city_id":"7192","city_name":"\u963f\u5c14\u52d2","en_name":"Arles","pingyin":"aerle","latitude":"43.676674","longitude":"4.627502","ctry_id":"186","country_name":"\u6cd5\u56fd"},{"city_id":"7255","city_name":"\u963f\u5c14\u8428\u65af","en_name":"Alsace","pingyin":"aersasi","latitude":"48.318180","longitude":"7.441624","ctry_id":"186","country_name":"\u6cd5\u56fd"},{"city_id":"11625","city_name":"\u963f\u5c14\u5c71","en_name":"Aershan","pingyin":"aershan","latitude":"47.177399","longitude":"119.943535","ctry_id":"11","country_name":"\u4e2d\u56fd"},{"city_id":"8439","city_name":"\u963f\u5c14\u5854","en_name":"Alta","pingyin":"aerta","latitude":"69.966667","longitude":"23.241667","ctry_id":"521","country_name":"\u632a\u5a01"},{"city_id":"61","city_name":"\u963f\u683c\u62c9","en_name":"Agra ","pingyin":"agela","latitude":"27.176670","longitude":"78.008072","ctry_id":"231","country_name":"\u5370\u5ea6"},{"city_id":"9271","city_name":"\u963f\u683c\u91cc\u771f\u6258","en_name":"Agrigento","pingyin":"agelizhentuo","latitude":"37.316666","longitude":"13.566667","ctry_id":"189","country_name":"\u610f\u5927\u5229"},{"city_id":"8522","city_name":"\u963f\u5bd2\u56fd\u7acb\u516c\u56ed","en_name":"Akan national park","pingyin":"ahanguoligongyuan","latitude":"43.433647","longitude":"144.086700","ctry_id":"14","country_name":"\u65e5\u672c"},{"city_id":"7512","city_name":"\u827e\u4f2f\u5854\u7701","en_name":"Alberta","pingyin":"aibotasheng","latitude":"55.000000","longitude":"-115.000000","ctry_id":"238","country_name":"\u52a0\u62ff\u5927"},{"city_id":"13641","city_name":"\u7231\u8fbe\u8377\u798f\u5c14\u65af","en_name":"Idaho Falls","pingyin":"aidahefuersi","latitude":"43.491650","longitude":"-112.033966","ctry_id":"236","country_name":"\u7f8e\u56fd"},{"city_id":"7877","city_name":"\u7231\u8fbe\u8377\u5dde","en_name":"Idaho","pingyin":"aidahezhou","latitude":"44.068203","longitude":"-114.742043","ctry_id":"236","country_name":"\u7f8e\u56fd"},{"city_id":"8442","city_name":"\u57c3\u5fb7\u5ce1\u6e7e","en_name":"Eidfjord","pingyin":"aidefeiyouer","latitude":"60.466667","longitude":"7.083333","ctry_id":"521","country_name":"\u632a\u5a01"},{"city_id":"11216","city_name":"\u7231\u5fb7\u534e\u738b\u5b50\u5c9b","en_name":"Prince Edward Island","pingyin":"aidehuawangzidao","latitude":"46.250000","longitude":"-63.000000","ctry_id":"238","country_name":"\u52a0\u62ff\u5927"},{"city_id":"7510","city_name":"\u57c3\u5fb7\u8499\u987f","en_name":"Edmonton","pingyin":"aidemengdun","latitude":"53.549999","longitude":"-113.500000","ctry_id":"238","country_name":"\u52a0\u62ff\u5927"},{"city_id":"8903","city_name":"\u57c3\u8fea\u5c14\u5185","en_name":"Edirne","pingyin":"aidiernei","latitude":"41.681808","longitude":"26.562269","ctry_id":"195","country_name":"\u571f\u8033\u5176"},{"city_id":"8755","city_name":"\u7231\u4e01\u5821","en_name":"Edinburgh","pingyin":"aidingbao","latitude":"55.953251","longitude":"-3.188267","ctry_id":"13","country_name":"\u82f1\u56fd"},{"city_id":"6405","city_name":"\u827e\u6069","en_name":"Al ain","pingyin":"aien","latitude":"24.191668","longitude":"55.760555","ctry_id":"402","country_name":"\u963f\u8054\u914b"},{"city_id":"8753","city_name":"\u827e\u5c14","en_name":"Ayr","pingyin":"aier","latitude":"55.450001","longitude":"-4.616667","ctry_id":"13","country_name":"\u82f1\u56fd"},{"city_id":"13601","city_name":"\u57c3\u5c14\u963f\u96f7\u7eb3\u5c14","en_name":"El Arenal","pingyin":"aieraleinaer","latitude":"40.266899","longitude":"-5.085248","ctry_id":"182","country_name":"\u897f\u73ed\u7259"},{"city_id":"7022","city_name":"\u7231\u5c14\u798f\u7279","en_name":"Erfurt","pingyin":"aierfute","latitude":"50.983334","longitude":"11.033333","ctry_id":"15","country_name":"\u5fb7\u56fd"},{"city_id":"6401","city_name":"\u57c3\u5c14\u5361\u62c9\u6cd5\u7279","en_name":"El calafate","pingyin":"aierkalafate","latitude":"-50.333332","longitude":"-72.300003","ctry_id":"243","country_name":"\u963f\u6839\u5ef7"},{"city_id":"15811","city_name":"\u57c3\u5c14\u5170\u6839","en_name":"Erlangen","pingyin":"aierlangen","latitude":"49.589676","longitude":"11.011961","ctry_id":"15","country_name":"\u5fb7\u56fd"},{"city_id":"6719","city_name":"\u827e\u5c14\u5229\u6d77\u6ee9","en_name":"Airlie beach","pingyin":"aierlihaitan","latitude":"-20.268721","longitude":"148.718460","ctry_id":"240","country_name":"\u6fb3\u5927\u5229\u4e9a"},{"city_id":"7259","city_name":"\u7231\u59ae\u5c9b","en_name":"El nido","pingyin":"aierniduo","latitude":"11.185833","longitude":"119.395554","ctry_id":"446","country_name":"\u83f2\u5f8b\u5bbe"},{"city_id":"6402","city_name":"\u827e\u5c14\u6070\u767b","en_name":"El chalten","pingyin":"aierqiadeng","latitude":"-49.331493","longitude":"-72.886322","ctry_id":"243","country_name":"\u963f\u6839\u5ef7"},{"city_id":"8904","city_name":"\u57c3\u5c14\u7956\u9c81\u59c6","en_name":"Erzurum","pingyin":"aierzulumu","latitude":"39.908611","longitude":"41.276943","ctry_id":"195","country_name":"\u571f\u8033\u5176"},{"city_id":"9178","city_name":"\u57c3\u683c\u5c14","en_name":"Eger","pingyin":"aigeer","latitude":"47.900002","longitude":"20.383333","ctry_id":"207","country_name":"\u5308\u7259\u5229"},{"city_id":"10231","city_name":"\u827e\u54c8\u8fc8\u8fbe\u5df4\u5fb7","en_name":"Ahmedabad","pingyin":"aihamaidabade","latitude":"23.039568","longitude":"72.566002","ctry_id":"231","country_name":"\u5370\u5ea6"},{"city_id":"7876","city_name":"\u7231\u8377\u534e\u5dde","en_name":"Iowa","pingyin":"aihehuazhou","latitude":"41.878002","longitude":"-93.097702","ctry_id":"236","country_name":"\u7f8e\u56fd"},{"city_id":"9544","city_name":"\u57c3\u514b\u585e\u7279","en_name":"Exeter","pingyin":"aikesaite","latitude":"50.700001","longitude":"-3.533333","ctry_id":"13","country_name":"\u82f1\u56fd"},{"city_id":"10148","city_name":"\u827e\u514b\u65af","en_name":"Aix en Provence","pingyin":"aikesi","latitude":"43.529743","longitude":"5.447427","ctry_id":"186","country_name":"\u6cd5\u56fd"},{"city_id":"6595","city_name":"\u57c3\u514b\u65af\u8305\u65af","en_name":"Exmouth","pingyin":"aikesimaosi","latitude":"-21.933332","longitude":"114.133331","ctry_id":"240","country_name":"\u6fb3\u5927\u5229\u4e9a"},{"city_id":"10413","city_name":"\u57c3\u514b\u82cf\u9a6c\u5c9b","en_name":"Exuma","pingyin":"aikesumadao","latitude":"23.619261","longitude":"-75.969543","ctry_id":"413","country_name":"\u5df4\u54c8\u9a6c"},{"city_id":"8700","city_name":"\u57c3\u52d2","en_name":"Ella","pingyin":"aila","latitude":"6.873760","longitude":"81.049026","ctry_id":"537","country_name":"\u65af\u91cc\u5170\u5361"},{"city_id":"10596","city_name":"\u57c3\u62c9\u7279","en_name":"Eilat","pingyin":"ailate","latitude":"29.557669","longitude":"34.951923","ctry_id":"569","country_name":"\u4ee5\u8272\u5217"},{"city_id":"6596","city_name":"\u7231\u4e3d\u65af\u6cc9","en_name":"Alice springs","pingyin":"ailisiquan","latitude":"-23.700211","longitude":"133.880615","ctry_id":"240","country_name":"\u6fb3\u5927\u5229\u4e9a"},{"city_id":"9227","city_name":"\u57c3\u91cc\u6e29","en_name":"Yerevan","pingyin":"ailiwen","latitude":"40.181110","longitude":"44.513611","ctry_id":"566","country_name":"\u4e9a\u7f8e\u5c3c\u4e9a"},{"city_id":"10228","city_name":"\u57c3\u6d1b\u62c9","en_name":"Ellora","pingyin":"ailuola","latitude":"20.023825","longitude":"75.161835","ctry_id":"231","country_name":"\u5370\u5ea6"},{"city_id":"11318","city_name":"\u7231\u8499\u5854\u5c14","en_name":"Emmental","pingyin":"aimengtaer","latitude":"46.984638","longitude":"7.762380","ctry_id":"524","country_name":"\u745e\u58eb"},{"city_id":"13241","city_name":"\u827e\u7c73\u5229\u4e9a-\u7f57\u9a6c\u6d85\u5927\u533a","en_name":"Emilia-Romagna","pingyin":"aimiliyaluomaniedaqu","latitude":"44.596760","longitude":"11.218640","ctry_id":"189","country_name":"\u610f\u5927\u5229"},{"city_id":"11418","city_name":"\u57c3\u7eb3\u96f7\u65af\u5821","en_name":"Alcal\u00e1 de Henares","pingyin":"ainaleisibao","latitude":"40.481979","longitude":"-3.363542","ctry_id":"182","country_name":"\u897f\u73ed\u7259"},{"city_id":"11238","city_name":"\u57c3\u76ae\u8fbe\u9c81\u65af","en_name":"Epidaurus","pingyin":"aipidalusi","latitude":"37.637489","longitude":"23.155804","ctry_id":"206","country_name":"\u5e0c\u814a"},{"city_id":"10806","city_name":"\u57c3\u5947\u7c73\u4e9a\u6d25","en_name":"Echmiadzin","pingyin":"aiqimiyajin","latitude":"40.172779","longitude":"44.292500","ctry_id":"566","country_name":"\u4e9a\u7f8e\u5c3c\u4e9a"},{"city_id":"7021","city_name":"\u57c3\u68ee","en_name":"Essen","pingyin":"aisen","latitude":"51.454327","longitude":"7.004802","ctry_id":"15","country_name":"\u5fb7\u56fd"},{"city_id":"10682","city_name":"\u827e\u68ee\u7eb3\u8d6b","en_name":"Eisenach","pingyin":"aisennahe","latitude":"50.980255","longitude":"10.315619","ctry_id":"15","country_name":"\u5fb7\u56fd"},{"city_id":"6534","city_name":"\u827e\u68ee\u65bd\u5854\u7279","en_name":"Eisenstadt","pingyin":"aisenshitate","latitude":"47.849998","longitude":"16.516666","ctry_id":"198","country_name":"\u5965\u5730\u5229"},{"city_id":"7006","city_name":"\u57c3\u65af\u6bd4\u7ea6","en_name":"Esbjerg","pingyin":"aisibiyue","latitude":"55.466667","longitude":"8.450000","ctry_id":"205","country_name":"\u4e39\u9ea6"},{"city_id":"13625","city_name":"\u57c3\u65af\u6ce2","en_name":"Espoo","pingyin":"aisibo","latitude":"60.205490","longitude":"24.655899","ctry_id":"448","country_name":"\u82ac\u5170"},{"city_id":"13627","city_name":"\u57c3\u65af\u6797\u6839","en_name":"Esslingen","pingyin":"aisilingen","latitude":"48.743343","longitude":"9.320112","ctry_id":"15","country_name":"\u5fb7\u56fd"},{"city_id":"9179","city_name":"\u57c3\u65af\u6cf0\u5c14\u6208\u59c6","en_name":"Esztergom","pingyin":"aisitaiergemu","latitude":"47.799999","longitude":"18.750000","ctry_id":"207","country_name":"\u5308\u7259\u5229"},{"city_id":"9069","city_name":"\u57c3\u65af\u7279\u96f7\u9a6c\u675c\u62c9","en_name":"Extremadura","pingyin":"aisiteleimadula","latitude":"39.493740","longitude":"-6.067919","ctry_id":"182","country_name":"\u897f\u73ed\u7259"},{"city_id":"10005","city_name":"\u57c3\u7279\u52d2\u5854","en_name":"Etretat","pingyin":"aiteleta","latitude":"49.707199","longitude":"0.207500","ctry_id":"186","country_name":"\u6cd5\u56fd"},{"city_id":"10542","city_name":"\u827e\u56fe\u5854\u57fa","en_name":"Aitutaki","pingyin":"aitutaji","latitude":"-18.849115","longitude":"-159.782303","ctry_id":"484","country_name":"\u5e93\u514b\u7fa4\u5c9b"},{"city_id":"10236","city_name":"\u57c3\u6b66\u62c9","en_name":"Evora","pingyin":"aiwula","latitude":"38.571430","longitude":"-7.913502","ctry_id":"523","country_name":"\u8461\u8404\u7259"},{"city_id":"8283","city_name":"\u827e\u897f\u62c9","en_name":"Asilah","pingyin":"aixila","latitude":"35.465557","longitude":"-6.040278","ctry_id":"513","country_name":"\u6469\u6d1b\u54e5"},{"city_id":"7752","city_name":"\u57c3\u5e0c\u7279\u7eb3\u8d6b","en_name":"Echternach","pingyin":"aixitenahe","latitude":"49.805557","longitude":"6.422222","ctry_id":"493","country_name":"\u5362\u68ee\u5821"},{"city_id":"10966","city_name":"\u57c3\u4f0a\u5c14\u65af\u5854\u6d4e","en_name":"Egilssta\u00f0ir","pingyin":"aiyiersitaji","latitude":"65.266876","longitude":"-14.394847","ctry_id":"425","country_name":"\u51b0\u5c9b"},{"city_id":"10788","city_name":"\u827e\u56e0\u76d6\u8fea","en_name":"Ein Gedi","pingyin":"aiyingaidi","latitude":"31.451191","longitude":"35.383572","ctry_id":"569","country_name":"\u4ee5\u8272\u5217"},{"city_id":"10127","city_name":"\u57c3\u56e0\u970d\u6e29","en_name":"Eindhoven","pingyin":"aiyinhuowen","latitude":"51.441643","longitude":"5.469722","ctry_id":"200","country_name":"\u8377\u5170"},{"city_id":"11350","city_name":"\u7231\u5a9b\u53bf","en_name":"Ehime-ken","pingyin":"aiyuan","latitude":"33.830788","longitude":"132.771866","ctry_id":"14","country_name":"\u65e5\u672c"},{"city_id":"8446","city_name":"\u827e\u4e8e\u5170","en_name":"Aurland","pingyin":"aiyulan","latitude":"60.903568","longitude":"7.201723","ctry_id":"521","country_name":"\u632a\u5a01"},{"city_id":"13048","city_name":"\u7231\u77e5\u53bf","en_name":"Aichi-ken","pingyin":"aizhixian","latitude":"35.180187","longitude":"136.906570","ctry_id":"14","country_name":"\u65e5\u672c"},{"city_id":"10075","city_name":"\u57c3\u5179","en_name":"\u00c9ze","pingyin":"aizi","latitude":"43.727818","longitude":"7.361792","ctry_id":"186","country_name":"\u6cd5\u56fd"},{"city_id":"8282","city_name":"\u963f\u52a0\u8fea\u5c14","en_name":"Agadir","pingyin":"ajiadier","latitude":"30.400000","longitude":"-9.600000","ctry_id":"513","country_name":"\u6469\u6d1b\u54e5"},{"city_id":"7380","city_name":"\u5df4\u7edf","en_name":"Batumi","pingyin":"ajiala","latitude":"41.638611","longitude":"41.637222","ctry_id":"457","country_name":"\u683c\u9c81\u5409\u4e9a"},{"city_id":"9411","city_name":"\u963f\u6770\u6885\u5c14","en_name":"Ajmer","pingyin":"ajiemeier","latitude":"26.450001","longitude":"74.633331","ctry_id":"231","country_name":"\u5370\u5ea6"},{"city_id":"6404","city_name":"\u963f\u5409\u66fc","en_name":"Ajman","pingyin":"ajiman","latitude":"25.403023","longitude":"55.491798","ctry_id":"402","country_name":"\u963f\u8054\u914b"},{"city_id":"13199","city_name":"\u963f\u57fa\u5766\u5927\u533a","en_name":"Region Aquitaine","pingyin":"ajitandaqu","latitude":"44.700222","longitude":"-0.299579","ctry_id":"186","country_name":"\u6cd5\u56fd"},{"city_id":"10160","city_name":"\u963f\u5361","en_name":"Akko","pingyin":"aka","latitude":"32.933052","longitude":"35.082680","ctry_id":"569","country_name":"\u4ee5\u8272\u5217"},{"city_id":"7865","city_name":"\u963f\u5361\u8fea\u4e9a\u56fd\u5bb6\u516c\u56ed","en_name":"Acadia national park","pingyin":"akadiyaguojiagongyuan","latitude":"44.338554","longitude":"-68.273338","ctry_id":"236","country_name":"\u7f8e\u56fd"},{"city_id":"10188","city_name":"\u963f\u5361\u7f57\u963f","en_name":"Akaroa","pingyin":"akaluoa","latitude":"-43.803665","longitude":"172.968262","ctry_id":"241","country_name":"\u65b0\u897f\u5170"},{"city_id":"10314","city_name":"\u963f\u5361\u666e\u5c14\u79d1","en_name":"Acapulco","pingyin":"akapuerke","latitude":"16.863794","longitude":"-99.881615","ctry_id":"515","country_name":"\u58a8\u897f\u54e5"},{"city_id":"7193","city_name":"\u963f\u5361\u96c4","en_name":"Arcachon","pingyin":"akaxiong","latitude":"44.652802","longitude":"-1.169200","ctry_id":"186","country_name":"\u6cd5\u56fd"},{"city_id":"7617","city_name":"\u963f\u514b\u62c9","en_name":"Accra","pingyin":"akela","latitude":"5.550000","longitude":"-0.216667","ctry_id":"471","country_name":"\u52a0\u7eb3"},{"city_id":"6901","city_name":"\u963f\u514b\u96f7\u91cc","en_name":"Akureyri","pingyin":"akeleili","latitude":"65.666664","longitude":"-18.100000","ctry_id":"425","country_name":"\u51b0\u5c9b"},{"city_id":"7867","city_name":"\u963f\u80af\u8272","en_name":"Arkansas","pingyin":"akense","latitude":"35.201050","longitude":"-91.831833","ctry_id":"236","country_name":"\u7f8e\u56fd"},{"city_id":"12537","city_name":"\u963f\u514b\u585e","en_name":"Akesai","pingyin":"akesai","latitude":"39.633942","longitude":"94.340202","ctry_id":"11","country_name":"\u4e2d\u56fd"},{"city_id":"9828","city_name":"\u963f\u514b\u8428\u8d56","en_name":"Aksaray","pingyin":"akesalai","latitude":"38.368690","longitude":"34.036980","ctry_id":"195","country_name":"\u571f\u8033\u5176"},{"city_id":"13269","city_name":"\u963f\u514b\u4ec0\u80e1\u65af\u90e1","en_name":"Akershus","pingyin":"akeshenhusijun","latitude":"60.000019","longitude":"11.369030","ctry_id":"521","country_name":"\u632a\u5a01"},{"city_id":"11686","city_name":"\u963f\u514b\u82cf","en_name":"Akesu","pingyin":"akesu","latitude":"41.168777","longitude":"80.260605","ctry_id":"11","country_name":"\u4e2d\u56fd"},{"city_id":"7868","city_name":"\u963f\u62c9\u5df4\u9a6c\u5dde","en_name":"Alabama","pingyin":"alabamazhou","latitude":"32.318230","longitude":"-86.902298","ctry_id":"236","country_name":"\u7f8e\u56fd"},{"city_id":"12007","city_name":"\u963f\u62c9\u5c14","en_name":"Alaer","pingyin":"alaer","latitude":"40.547653","longitude":"81.280525","ctry_id":"11","country_name":"\u4e2d\u56fd"},{"city_id":"11225","city_name":"\u963f\u62c9\u8d21\u81ea\u6cbb\u533a","en_name":"Aragon","pingyin":"alagongzizhiqu","latitude":"41.597630","longitude":"-0.905662","ctry_id":"182","country_name":"\u897f\u73ed\u7259"},{"city_id":"10025","city_name":"\u963f\u62c9\u54c8\u5df4\u5fb7","en_name":"Allahabad","pingyin":"alahabade","latitude":"25.435801","longitude":"81.846313","ctry_id":"231","country_name":"\u5370\u5ea6"},{"city_id":"7355","city_name":"\u963f\u62c9\u80e1\u57c3\u62c9","en_name":"Alajuela","pingyin":"alahuaila","latitude":"10.016667","longitude":"-84.216667","ctry_id":"454","country_name":"\u54e5\u65af\u8fbe\u9ece\u52a0"},{"city_id":"7409","city_name":"\u963f\u62c9\u6728\u56fe","en_name":"Almaty","pingyin":"alamutu","latitude":"43.250000","longitude":"76.949997","ctry_id":"461","country_name":"\u54c8\u8428\u514b\u65af\u5766"},{"city_id":"13566","city_name":"\u963f\u5170\u8fbe","en_name":"Arlanda","pingyin":"alanda","latitude":"59.649761","longitude":"17.923780","ctry_id":"202","country_name":"\u745e\u5178"},{"city_id":"11390","city_name":"\u963f\u62c9\u6070\u7279","en_name":"Ala\u00e7at\u0131","pingyin":"alaqiate","latitude":"38.282959","longitude":"26.374479","ctry_id":"195","country_name":"\u571f\u8033\u5176"},{"city_id":"11636","city_name":"\u963f\u62c9\u5584\u76df","en_name":"Alashanmeng","pingyin":"alashanmeng","latitude":"38.851891","longitude":"105.728966","ctry_id":"11","country_name":"\u4e2d\u56fd"},{"city_id":"12316","city_name":"\u963f\u62c9\u5584\u5de6\u65d7","en_name":"Alashanzuoqi","pingyin":"alashanzuoqi","latitude":"38.833412","longitude":"105.666290","ctry_id":"11","country_name":"\u4e2d\u56fd"},{"city_id":"7869","city_name":"\u963f\u62c9\u65af\u52a0\u5dde","en_name":"Alaska","pingyin":"alasijiazhou","latitude":"64.200844","longitude":"-149.493668","ctry_id":"236","country_name":"\u7f8e\u56fd"},{"city_id":"6805","city_name":"\u963f\u96f7\u683c\u91cc\u6e2f","en_name":"Porto alegre","pingyin":"aleigeligang","latitude":"-30.027704","longitude":"-51.228737","ctry_id":"242","country_name":"\u5df4\u897f"},{"city_id":"8240","city_name":"\u963f\u96f7\u57fa\u5e15","en_name":"Arequipa","pingyin":"aleijipa","latitude":"-16.398890","longitude":"-71.535004","ctry_id":"509","country_name":"\u79d8\u9c81"},{"city_id":"9272","city_name":"\u963f\u96f7\u4f50","en_name":"Arezzo","pingyin":"aleizuo","latitude":"43.466969","longitude":"11.882308","ctry_id":"189","country_name":"\u610f\u5927\u5229"},{"city_id":"10807","city_name":"\u963f\u52d2\u9887","en_name":"Aleppo","pingyin":"alepo","latitude":"36.215549","longitude":"37.159279","ctry_id":"564","country_name":"\u53d9\u5229\u4e9a"},{"city_id":"11692","city_name":"\u963f\u52d2\u6cf0","en_name":"Aletai","pingyin":"aletai","latitude":"47.844925","longitude":"88.141251","ctry_id":"11","country_name":"\u4e2d\u56fd"},{"city_id":"11956","city_name":"\u963f\u91cc","en_name":"Ali","pingyin":"ali","latitude":"32.501110","longitude":"80.105804","ctry_id":"11","country_name":"\u4e2d\u56fd"},{"city_id":"9781","city_name":"\u963f\u91cc\u5361","en_name":"Arica","pingyin":"alika","latitude":"-18.483334","longitude":"-70.333336","ctry_id":"575","country_name":"\u667a\u5229"},{"city_id":"9068","city_name":"\u963f\u5229\u574e\u7279","en_name":"Alicante","pingyin":"alikante","latitude":"38.349998","longitude":"-0.483333","ctry_id":"182","country_name":"\u897f\u73ed\u7259"},{"city_id":"9102","city_name":"\u7bad\u9547","en_name":"Arrowtown","pingyin":"aluodun","latitude":"-44.941689","longitude":"168.835861","ctry_id":"241","country_name":"\u65b0\u897f\u5170"},{"city_id":"8870","city_name":"\u963f\u9c81\u6c99","en_name":"Arusha","pingyin":"alusha","latitude":"-3.366667","longitude":"36.683334","ctry_id":"546","country_name":"\u5766\u6851\u5c3c\u4e9a"},{"city_id":"9273","city_name":"\u963f\u9a6c\u5c14\u83f2","en_name":"Amalfi","pingyin":"amafei","latitude":"40.633331","longitude":"14.600000","ctry_id":"189","country_name":"\u610f\u5927\u5229"},{"city_id":"8901","city_name":"\u963f\u9a6c\u897f\u4e9a","en_name":"Amasya","pingyin":"amaxiya","latitude":"40.653332","longitude":"35.833057","ctry_id":"195","country_name":"\u571f\u8033\u5176"},{"city_id":"10135","city_name":"\u963f\u9ed8\u65af\u798f\u7279","en_name":"Amersfoort","pingyin":"amosifute","latitude":"52.156113","longitude":"5.387827","ctry_id":"200","country_name":"\u8377\u5170"},{"city_id":"9412","city_name":"\u963f\u59c6\u5229\u5219","en_name":"Amritsar","pingyin":"amulize","latitude":"31.633057","longitude":"74.865555","ctry_id":"231","country_name":"\u5370\u5ea6"},{"city_id":"42","city_name":"\u963f\u59c6\u65af\u7279\u4e39","en_name":"Amsterdam","pingyin":"amusitedan","latitude":"52.370216","longitude":"4.895168","ctry_id":"200","country_name":"\u8377\u5170"},{"city_id":"10132","city_name":"\u963f\u7eb3\u59c6","en_name":"Arnhem","pingyin":"anamu","latitude":"51.985561","longitude":"5.909860","ctry_id":"200","country_name":"\u8377\u5170"},{"city_id":"9548","city_name":"\u5b89\u535a\u585e\u5f97","en_name":"Ambleside","pingyin":"anbosaide","latitude":"54.416668","longitude":"-2.966667","ctry_id":"13","country_name":"\u82f1\u56fd"},{"city_id":"7712","city_name":"\u5b89\u535a\u585e\u5229\u56fd\u5bb6\u516c\u56ed","en_name":"Amboseli national park","pingyin":"anbosailiguojiagongyuan","latitude":"-2.626610","longitude":"37.254406","ctry_id":"483","country_name":"\u80af\u5c3c\u4e9a"},{"city_id":"12184","city_name":"\u5b89\u660c\u9547","en_name":"Anchang","pingyin":"anchang","latitude":"30.136520","longitude":"120.497597","ctry_id":"11","country_name":"\u4e2d\u56fd"},{"city_id":"7514","city_name":"\u5b89\u5927\u7565\u7701","en_name":"Ontario","pingyin":"andaluesheng","latitude":"51.253777","longitude":"-85.323212","ctry_id":"238","country_name":"\u52a0\u62ff\u5927"},{"city_id":"9070","city_name":"\u5b89\u8fbe\u5362\u897f\u4e9a","en_name":"Andalucia","pingyin":"andaluxiya","latitude":"37.544270","longitude":"-4.727753","ctry_id":"182","country_name":"\u897f\u73ed\u7259"},{"city_id":"6527","city_name":"\u5b89\u9053\u5c14\u57ce","en_name":"Andorra la vella","pingyin":"andaoer","latitude":"42.500000","longitude":"1.516667","ctry_id":"408","country_name":"\u5b89\u9053\u5c14"},{"city_id":"7771","city_name":"\u5b89\u8fbe\u897f\u8d1d\u56fd\u5bb6\u516c\u56ed","en_name":"Andasibe-Mantadia National Park","pingyin":"andaxibeiguojiagongyuan","latitude":"-18.834980","longitude":"48.458736","ctry_id":"496","country_name":"\u9a6c\u8fbe\u52a0\u65af\u52a0"},{"city_id":"10087","city_name":"\u5b89\u5fb7\u9a6c\u7279","en_name":"Andermatt","pingyin":"andemate","latitude":"46.633598","longitude":"8.594810","ctry_id":"524","country_name":"\u745e\u58eb"},{"city_id":"11373","city_name":"\u667a\u5229\u5b89\u7b2c\u65af\u9ad8\u539f","en_name":"Altiplano","pingyin":"andisigaoyuan","latitude":"-18.473055","longitude":"-68.001900","ctry_id":"575","country_name":"\u667a\u5229"},{"city_id":"7426","city_name":"\u5b89\u4e1c","en_name":"Andong","pingyin":"andong","latitude":"36.562859","longitude":"128.724106","ctry_id":"233","country_name":"\u97e9\u56fd"},{"city_id":"12497","city_name":"\u5b89\u591a","en_name":"Anduo","pingyin":"anduo","latitude":"32.249928","longitude":"91.666733","ctry_id":"11","country_name":"\u4e2d\u56fd"},{"city_id":"7194","city_name":"\u963f\u8bb7\u897f","en_name":"Annecy","pingyin":"anexi","latitude":"45.900002","longitude":"6.116667","ctry_id":"186","country_name":"\u6cd5\u56fd"},{"city_id":"12891","city_name":"\u5b89\u798f","en_name":"Anfu","pingyin":"anfu","latitude":"27.392874","longitude":"114.619896","ctry_id":"11","country_name":"\u4e2d\u56fd"},{"city_id":"7198","city_name":"\u6602\u5e03\u74e6\u5179","en_name":"Amboise","pingyin":"angbuwasi","latitude":"47.416668","longitude":"0.983333","ctry_id":"186","country_name":"\u6cd5\u56fd"},{"city_id":"7199","city_name":"\u6602\u70ed","en_name":"Angers","pingyin":"angre","latitude":"47.466667","longitude":"-0.550000","ctry_id":"186","country_name":"\u6cd5\u56fd"},{"city_id":"12652","city_name":"\u6602\u4ec1","en_name":"Angren","pingyin":"angren","latitude":"29.294802","longitude":"87.236053","ctry_id":"11","country_name":"\u4e2d\u56fd"},{"city_id":"12363","city_name":"\u5b89\u5316","en_name":"Anhua","pingyin":"anhua","latitude":"28.374107","longitude":"111.212845","ctry_id":"11","country_name":"\u4e2d\u56fd"},{"city_id":"9541","city_name":"\u963f\u5c3c\u514b","en_name":"Alnwick","pingyin":"anike","latitude":"55.400002","longitude":"-1.700000","ctry_id":"13","country_name":"\u82f1\u56fd"},{"city_id":"11918","city_name":"\u5b89\u5409","en_name":"Anji","pingyin":"anji","latitude":"30.638676","longitude":"119.680351","ctry_id":"11","country_name":"\u4e2d\u56fd"},{"city_id":"8905","city_name":"\u5b89\u5361\u62c9","en_name":"Ankara","pingyin":"ankala","latitude":"39.927223","longitude":"32.864445","ctry_id":"195","country_name":"\u571f\u8033\u5176"},{"city_id":"11907","city_name":"\u5b89\u5eb7","en_name":"Ankang","pingyin":"ankang","latitude":"32.684715","longitude":"109.029022","ctry_id":"11","country_name":"\u4e2d\u56fd"},{"city_id":"7878","city_name":"\u5b89\u514b\u96f7\u5947","en_name":"Anchorage","pingyin":"ankeleiqi","latitude":"61.218056","longitude":"-149.900284","ctry_id":"236","country_name":"\u7f8e\u56fd"},{"city_id":"9279","city_name":"\u5b89\u79d1\u7eb3","en_name":"Ancona","pingyin":"ankena","latitude":"43.633331","longitude":"13.500000","ctry_id":"189","country_name":"\u610f\u5927\u5229"},{"city_id":"12605","city_name":"\u5b89\u9f99","en_name":"Anlong","pingyin":"anlong","latitude":"25.099014","longitude":"105.442703","ctry_id":"11","country_name":"\u4e2d\u56fd"},{"city_id":"12563","city_name":"\u5b89\u9646","en_name":"Anlu","pingyin":"anlu","latitude":"31.255594","longitude":"113.689026","ctry_id":"11","country_name":"\u4e2d\u56fd"},{"city_id":"9725","city_name":"\u5b89\u66fc","en_name":"Amman","pingyin":"anman","latitude":"31.950001","longitude":"35.933334","ctry_id":"572","country_name":"\u7ea6\u65e6"},{"city_id":"13653","city_name":"\u5b89\u5a1c\u5821","en_name":"Ann Arbor","pingyin":"annabao","latitude":"42.280827","longitude":"-83.743034","ctry_id":"236","country_name":"\u7f8e\u56fd"},{"city_id":"7879","city_name":"\u5b89\u7eb3\u6ce2\u5229\u65af","en_name":"Annapolis","pingyin":"annabolisi","latitude":"38.978443","longitude":"-76.492180","ctry_id":"236","country_name":"\u7f8e\u56fd"},{"city_id":"13651","city_name":"\u5b89\u7eb3\u6d77\u59c6","en_name":"Anaheim","pingyin":"annahaimu","latitude":"33.835293","longitude":"-117.914505","ctry_id":"236","country_name":"\u7f8e\u56fd"},{"city_id":"15392","city_name":"\u5b89\u5a1c\u666e\u5c14\u7eb3\u4fdd\u62a4\u533a","en_name":"Annapurna Conservation Area","pingyin":"annapuernabaohuqu","latitude":"28.596111","longitude":"83.820274","ctry_id":"220","country_name":"\u5c3c\u6cca\u5c14"},{"city_id":"12801","city_name":"\u5b89\u5b81\u5e02","en_name":"Anning","pingyin":"anning","latitude":"24.919493","longitude":"102.478493","ctry_id":"11","country_name":"\u4e2d\u56fd"},{"city_id":"12046","city_name":"\u5b89\u5e86","en_name":"Anqing","pingyin":"anqing","latitude":"30.543493","longitude":"117.063751","ctry_id":"11","country_name":"\u4e2d\u56fd"},{"city_id":"12087","city_name":"\u5b89\u4ec1","en_name":"Anren","pingyin":"anren","latitude":"26.709057","longitude":"113.269440","ctry_id":"11","country_name":"\u4e2d\u56fd"},{"city_id":"12844","city_name":"\u5b89\u585e","en_name":"Ansai","pingyin":"ansai","latitude":"36.863853","longitude":"109.328842","ctry_id":"11","country_name":"\u4e2d\u56fd"},{"city_id":"11653","city_name":"\u978d\u5c71","en_name":"Anshan","pingyin":"anshan","latitude":"41.108646","longitude":"122.994331","ctry_id":"11","country_name":"\u4e2d\u56fd"},{"city_id":"11769","city_name":"\u5b89\u987a","en_name":"Anshun","pingyin":"anshun","latitude":"26.253073","longitude":"105.947594","ctry_id":"11","country_name":"\u4e2d\u56fd"},{"city_id":"8906","city_name":"\u5b89\u5854\u5229\u4e9a","en_name":"Antalya","pingyin":"antaliya","latitude":"36.912498","longitude":"30.689722","ctry_id":"195","country_name":"\u571f\u8033\u5176"},{"city_id":"7787","city_name":"\u5b89\u5854\u90a3\u90a3\u5229\u4f5b","en_name":"Antananarivo","pingyin":"antananalidaotuomu","latitude":"-18.914871","longitude":"47.531612","ctry_id":"496","country_name":"\u9a6c\u8fbe\u52a0\u65af\u52a0"},{"city_id":"6893","city_name":"\u5b89\u7279\u536b\u666e","en_name":"Antwerp","pingyin":"anteweipu","latitude":"51.216667","longitude":"4.416667","ctry_id":"424","country_name":"\u6bd4\u5229\u65f6"},{"city_id":"10083","city_name":"\u5b89\u63d0\u8d1d","en_name":"Antibes","pingyin":"antibei","latitude":"43.580044","longitude":"7.125188","ctry_id":"186","country_name":"\u6cd5\u56fd"},{"city_id":"8937","city_name":"\u5b89\u63d0\u74dc","en_name":"Antigua","pingyin":"antiguadao","latitude":"14.561111","longitude":"-90.734444","ctry_id":"555","country_name":"\u5371\u5730\u9a6c\u62c9"},{"city_id":"12320","city_name":"\u5b89\u56fe","en_name":"Antu","pingyin":"antu","latitude":"43.115898","longitude":"128.909241","ctry_id":"11","country_name":"\u4e2d\u56fd"},{"city_id":"8699","city_name":"\u963f\u52aa\u62c9\u5fb7\u666e\u52d2","en_name":"Anuradhapura","pingyin":"anuladepule","latitude":"8.350000","longitude":"80.383331","ctry_id":"537","country_name":"\u65af\u91cc\u5170\u5361"},{"city_id":"12776","city_name":"\u5b89\u6eaa","en_name":"Anxi","pingyin":"anxi","latitude":"25.055956","longitude":"118.186287","ctry_id":"11","country_name":"\u4e2d\u56fd"},{"city_id":"11707","city_name":"\u5b89\u9633","en_name":"Anyang","pingyin":"anyang","latitude":"37.394253","longitude":"126.956818","ctry_id":"11","country_name":"\u4e2d\u56fd"},{"city_id":"12384","city_name":"\u5b89\u4e49","en_name":"Anyi","pingyin":"anyi","latitude":"28.844507","longitude":"115.549248","ctry_id":"11","country_name":"\u4e2d\u56fd"},{"city_id":"12387","city_name":"\u5b89\u6e90","en_name":"Anyuan","pingyin":"anyuan","latitude":"27.615202","longitude":"113.870728","ctry_id":"11","country_name":"\u4e2d\u56fd"},{"city_id":"12791","city_name":"\u5b89\u8fdc","en_name":"Anyuan","pingyin":"anyuan","latitude":"25.136927","longitude":"115.393921","ctry_id":"11","country_name":"\u4e2d\u56fd"},{"city_id":"12826","city_name":"\u5b89\u5cb3","en_name":"Anyue","pingyin":"anyue","latitude":"30.097231","longitude":"105.335693","ctry_id":"11","country_name":"\u4e2d\u56fd"},{"city_id":"8757","city_name":"\u5965\u672c","en_name":"Oban","pingyin":"aoben","latitude":"56.416668","longitude":"-5.466667","ctry_id":"13","country_name":"\u82f1\u56fd"},{"city_id":"11519","city_name":"\u5965\u6bd4\u90fd\u65af","en_name":"\u00d3bidos","pingyin":"aobidousi","latitude":"39.360420","longitude":"-9.158201","ctry_id":"523","country_name":"\u8461\u8404\u7259"},{"city_id":"13660","city_name":"\u5965\u4f2f\u8c6a\u68ee","en_name":"Oberhausen","pingyin":"aobohaosen","latitude":"51.496334","longitude":"6.863777","ctry_id":"15","country_name":"\u5fb7\u56fd"},{"city_id":"8394","city_name":"\u5965\u8328\u80e1\u6069","en_name":"Oudtshoorn","pingyin":"aocihuen","latitude":"-33.583332","longitude":"22.200001","ctry_id":"517","country_name":"\u5357\u975e"},{"city_id":"8448","city_name":"\u5965\u8fbe","en_name":"Odda","pingyin":"aoda","latitude":"60.066666","longitude":"6.550000","ctry_id":"521","country_name":"\u632a\u5a01"},{"city_id":"8977","city_name":"\u6556\u5fb7\u8428","en_name":"Odesa","pingyin":"aodesa","latitude":"46.466667","longitude":"30.733334","ctry_id":"560","country_name":"\u4e4c\u514b\u5170"},{"city_id":"6597","city_name":"\u5965\u5c14\u5df4\u5c3c","en_name":"Albany","pingyin":"aoerbani","latitude":"-35.023823","longitude":"117.884727","ctry_id":"240","country_name":"\u6fb3\u5927\u5229\u4e9a"},{"city_id":"10173","city_name":"\u5965\u5c14\u5821","en_name":"Aalborg","pingyin":"aoerbao","latitude":"57.028812","longitude":"9.917771","ctry_id":"205","country_name":"\u4e39\u9ea6"},{"city_id":"11280","city_name":"\u5965\u5c14\u6d2a\u5c9b","en_name":"Olkhon","pingyin":"aoerhongdao","latitude":"53.156666","longitude":"107.383614","ctry_id":"208","country_name":"\u4fc4\u7f57\u65af"},{"city_id":"10550","city_name":"\u5965\u5c14\u826f","en_name":"Orleans","pingyin":"aoerliang","latitude":"47.902966","longitude":"1.909251","ctry_id":"186","country_name":"\u6cd5\u56fd"},{"city_id":"9415","city_name":"\u5965\u5c14\u6070","en_name":"Orchha","pingyin":"aoerqia","latitude":"25.350000","longitude":"78.650002","ctry_id":"231","country_name":"\u5370\u5ea6"},{"city_id":"9281","city_name":"\u5965\u5c14\u7ef4\u8036\u6258","en_name":"Orvieto","pingyin":"aoerweiyetuo","latitude":"42.716667","longitude":"12.116667","ctry_id":"189","country_name":"\u610f\u5927\u5229"},{"city_id":"15328","city_name":"\u5965\u98de\u9a52\u6e29\u6cc9\u4e61","en_name":"Okuhida Onsen Town","pingyin":"aofeituowenquanxiang","latitude":"36.244877","longitude":"137.519760","ctry_id":"14","country_name":"\u65e5\u672c"},{"city_id":"13200","city_name":"\u5965\u5f17\u6d85\u5927\u533a","en_name":"Region Auvergne","pingyin":"aofuniedaqu","latitude":"45.703270","longitude":"3.344854","ctry_id":"186","country_name":"\u6cd5\u56fd"},{"city_id":"7023","city_name":"\u5965\u683c\u65af\u5821","en_name":"Augsburg","pingyin":"aogesibao","latitude":"48.366669","longitude":"10.883333","ctry_id":"15","country_name":"\u5fb7\u56fd"},{"city_id":"6598","city_name":"\u5965\u53e4\u65af\u5854\u6e2f","en_name":"Port Augusta","pingyin":"aogusitagang","latitude":"-32.500000","longitude":"137.766663","ctry_id":"240","country_name":"\u6fb3\u5927\u5229\u4e9a"},{"city_id":"7845","city_name":"\u5965\u8d6b\u91cc\u5fb7","en_name":"Ohrid","pingyin":"aohelide","latitude":"41.117222","longitude":"20.801945","ctry_id":"501","country_name":"\u9a6c\u5176\u987f"},{"city_id":"9837","city_name":"\u5965\u80e1\u65af","en_name":"Aarhus","pingyin":"aohusi","latitude":"56.162937","longitude":"10.203921","ctry_id":"205","country_name":"\u4e39\u9ea6"},{"city_id":"66","city_name":"\u5965\u514b\u5170","en_name":"Auckland","pingyin":"aokelan","latitude":"-36.848461","longitude":"174.763336","ctry_id":"241","country_name":"\u65b0\u897f\u5170"},{"city_id":"13674","city_name":"\u52a0\u5229\u798f\u5c3c\u4e9a\u5dde\u5965\u514b\u5170","en_name":"Oakland","pingyin":"aokelan","latitude":"37.804363","longitude":"-122.271111","ctry_id":"236","country_name":"\u7f8e\u56fd"},{"city_id":"6328","city_name":"\u5965\u5170","en_name":"Oran","pingyin":"aolan","latitude":"35.691113","longitude":"-0.641667","ctry_id":"400","country_name":"\u963f\u5c14\u53ca\u5229\u4e9a"},{"city_id":"7882","city_name":"\u5965\u5170\u591a","en_name":"Orlando","pingyin":"aolanduo","latitude":"28.538336","longitude":"-81.379234","ctry_id":"236","country_name":"\u7f8e\u56fd"},{"city_id":"13679","city_name":"\u5965\u6717\u65e5","en_name":"Orange,Provence","pingyin":"aolangri","latitude":"44.126442","longitude":"4.803692","ctry_id":"186","country_name":"\u6cd5\u56fd"},{"city_id":"10227","city_name":"\u5965\u5170\u52a0\u5df4\u5fb7","en_name":"Aurangabad","pingyin":"aolanjiabade","latitude":"19.876165","longitude":"75.343315","ctry_id":"231","country_name":"\u5370\u5ea6"},{"city_id":"8440","city_name":"\u5965\u52d2\u677e","en_name":"Alesund","pingyin":"aolesong","latitude":"62.466667","longitude":"6.150000","ctry_id":"521","country_name":"\u632a\u5a01"},{"city_id":"13681","city_name":"\u5965\u5229","en_name":"Orly","pingyin":"aoli","latitude":"48.745193","longitude":"2.401373","ctry_id":"186","country_name":"\u6cd5\u56fd"},{"city_id":"7884","city_name":"\u5965\u6797\u5339\u514b\u56fd\u5bb6\u516c\u56ed","en_name":"Olympic national park","pingyin":"aolinpikeguojiagongyuan","latitude":"47.807358","longitude":"-123.577957","ctry_id":"236","country_name":"\u7f8e\u56fd"},{"city_id":"9019","city_name":"\u5965\u6797\u5339\u4e9a","en_name":"Olympia","pingyin":"aolinpiya","latitude":"37.644176","longitude":"21.620333","ctry_id":"206","country_name":"\u5e0c\u814a"},{"city_id":"7296","city_name":"\u5965\u5362","en_name":"Oulu","pingyin":"aolu","latitude":"65.016670","longitude":"25.466667","ctry_id":"448","country_name":"\u82ac\u5170"},{"city_id":"7669","city_name":"\u5965\u6d1b\u83ab\u4e4c\u8328","en_name":"Olomouc","pingyin":"aoluomowuci","latitude":"49.583332","longitude":"17.250000","ctry_id":"193","country_name":"\u6377\u514b"},{"city_id":"9108","city_name":"\u5965\u9a6c\u9c81","en_name":"Oamaru","pingyin":"aomalu","latitude":"-45.097511","longitude":"170.970413","ctry_id":"241","country_name":"\u65b0\u897f\u5170"},{"city_id":"51","city_name":"\u6fb3\u95e8","en_name":"Macau","pingyin":"aomen","latitude":"22.198746","longitude":"113.543877","ctry_id":"11","country_name":"\u4e2d\u56fd"},{"city_id":"10876","city_name":"\u5965\u83ab\u5c71\u8c37","en_name":"Omo Valley","pingyin":"aomoshangu","latitude":"4.758945","longitude":"36.590176","ctry_id":"405","country_name":"\u57c3\u585e\u4fc4\u6bd4\u4e9a"},{"city_id":"7701","city_name":"\u5965\u5e15\u8482\u4e9a","en_name":"Opatija","pingyin":"aopadiya","latitude":"45.335411","longitude":"14.306348","ctry_id":"482","country_name":"\u514b\u7f57\u5730\u4e9a"},{"city_id":"13278","city_name":"\u5965\u666e\u5170\u90e1","en_name":"Oppland","pingyin":"aopulanjun","latitude":"61.542274","longitude":"9.716631","ctry_id":"521","country_name":"\u632a\u5a01"},{"city_id":"9205","city_name":"\u5965\u4e54\u91cc\u5965\u65af","en_name":"Ocho rios","pingyin":"aoqiaoliaosi","latitude":"18.404942","longitude":"-77.105339","ctry_id":"565","country_name":"\u7259\u4e70\u52a0"},{"city_id":"13687","city_name":"\u5965\u8d5b","en_name":"Orsay","pingyin":"aosai","latitude":"48.697163","longitude":"2.189617","ctry_id":"186","country_name":"\u6cd5\u56fd"},{"city_id":"8450","city_name":"\u5965\u65af\u9646","en_name":"Oslo","pingyin":"aosilu","latitude":"59.913868","longitude":"10.752245","ctry_id":"521","country_name":"\u632a\u5a01"},{"city_id":"11142","city_name":"\u5965\u65af\u7eb3\u5e03\u5415\u514b","en_name":"\u00d6snabruck","pingyin":"aosinabulvke","latitude":"52.279911","longitude":"8.047179","ctry_id":"15","country_name":"\u5fb7\u56fd"},{"city_id":"9283","city_name":"\u5965\u65af\u5854","en_name":"Aosta","pingyin":"aosita","latitude":"45.733334","longitude":"7.333333","ctry_id":"189","country_name":"\u610f\u5927\u5229"},{"city_id":"13691","city_name":"\u5965\u65af\u5766\u5fb7","en_name":"Ostend","pingyin":"aositande","latitude":"51.215431","longitude":"2.928656","ctry_id":"424","country_name":"\u6bd4\u5229\u65f6"},{"city_id":"7886","city_name":"\u5965\u65af\u6c40","en_name":"Austin","pingyin":"aositing","latitude":"30.267153","longitude":"-97.743057","ctry_id":"236","country_name":"\u7f8e\u56fd"},{"city_id":"10647","city_name":"\u5965\u74e6\u5361","en_name":"Owaka","pingyin":"aowaka","latitude":"-46.451302","longitude":"169.658249","ctry_id":"241","country_name":"\u65b0\u897f\u5170"},{"city_id":"10278","city_name":"\u5965\u7ef4\u8036\u591a","en_name":"Oviedo","pingyin":"aoweiyeduo","latitude":"43.361916","longitude":"-5.849389","ctry_id":"182","country_name":"\u897f\u73ed\u7259"},{"city_id":"10142","city_name":"\u963f\u57f9\u5c14\u987f","en_name":"Apeldoorn","pingyin":"apeierdun","latitude":"52.211159","longitude":"5.969923","ctry_id":"200","country_name":"\u8377\u5170"},{"city_id":"7195","city_name":"\u963f\u666e\u7279","en_name":"Apt","pingyin":"apute","latitude":"43.883331","longitude":"5.400000","ctry_id":"186","country_name":"\u6cd5\u56fd"},{"city_id":"8923","city_name":"\u963f\u4ec0\u54c8\u5df4\u5fb7","en_name":"Ashgabat","pingyin":"ashenhabade","latitude":"37.950001","longitude":"58.383331","ctry_id":"552","country_name":"\u571f\u5e93\u66fc\u65af\u5766"},{"city_id":"6435","city_name":"\u963f\u65af\u9686","en_name":"Athlone","pingyin":"asilong","latitude":"53.422779","longitude":"-7.937222","ctry_id":"406","country_name":"\u7231\u5c14\u5170"},{"city_id":"7410","city_name":"\u963f\u65af\u5854\u7eb3","en_name":"Astana","pingyin":"asitana","latitude":"51.181110","longitude":"71.427780","ctry_id":"461","country_name":"\u54c8\u8428\u514b\u65af\u5766"},{"city_id":"11226","city_name":"\u963f\u65af\u56fe\u91cc\u4e9a\u65af","en_name":"Asturias","pingyin":"asituliyasi","latitude":"43.250439","longitude":"-5.983258","ctry_id":"182","country_name":"\u897f\u73ed\u7259"},{"city_id":"6416","city_name":"\u963f\u65af\u65fa","en_name":"Aswan","pingyin":"asiwang","latitude":"24.087500","longitude":"32.898888","ctry_id":"244","country_name":"\u57c3\u53ca"},{"city_id":"13591","city_name":"\u963f\u82cf\u5e02","en_name":"Aso","pingyin":"asushi","latitude":"32.955841","longitude":"131.095581","ctry_id":"14","country_name":"\u65e5\u672c"},{"city_id":"11372","city_name":"\u963f\u5854\u5361\u9a6c\u6c99\u6f20","en_name":"Atacama Desert","pingyin":"atakamashamo","latitude":"-23.369543","longitude":"-69.859741","ctry_id":"575","country_name":"\u667a\u5229"},{"city_id":"11299","city_name":"\u963f\u7279\u6e56","en_name":"Attersee","pingyin":"atehu","latitude":"47.914753","longitude":"13.534575","ctry_id":"198","country_name":"\u5965\u5730\u5229"},{"city_id":"13231","city_name":"\u963f\u63d0\u5361\u5927\u533a","en_name":"Attica","pingyin":"atikadaqu","latitude":"38.045757","longitude":"23.858475","ctry_id":"206","country_name":"\u5e0c\u814a"},{"city_id":"8902","city_name":"\u963f\u74e6\u8bfa\u65af","en_name":"Avanos","pingyin":"awanuosi","latitude":"38.715000","longitude":"34.846668","ctry_id":"195","country_name":"\u571f\u8033\u5176"},{"city_id":"10890","city_name":"\u963f\u74e6\u8428","en_name":"Awasa","pingyin":"awasa","latitude":"7.060202","longitude":"38.476711","ctry_id":"405","country_name":"\u57c3\u585e\u4fc4\u6bd4\u4e9a"},{"city_id":"10732","city_name":"\u963f\u74e6\u58eb","en_name":"Ahvaz","pingyin":"awashi","latitude":"31.316710","longitude":"48.684380","ctry_id":"568","country_name":"\u4f0a\u6717"},{"city_id":"10266","city_name":"\u963f\u7ef4\u62c9","en_name":"\u00c1vila","pingyin":"aweila","latitude":"40.662594","longitude":"-4.695817","ctry_id":"182","country_name":"\u897f\u73ed\u7259"},{"city_id":"11192","city_name":"\u963f\u5a01\u7f57","en_name":"Aveiro","pingyin":"aweiluo","latitude":"40.640507","longitude":"-8.653754","ctry_id":"523","country_name":"\u8461\u8404\u7259"},{"city_id":"7196","city_name":"\u963f\u7ef4\u5c3c\u7fc1","en_name":"Avignon","pingyin":"aweiniweng","latitude":"43.949318","longitude":"4.805528","ctry_id":"186","country_name":"\u6cd5\u56fd"},{"city_id":"13593","city_name":"\u963f\u7ef4\u5c3c\u7fc1\u65b0\u57ce","en_name":"Villeneuve-l\u00e8s-Avignon","pingyin":"aweiniwengxincheng","latitude":"43.963409","longitude":"4.796959","ctry_id":"186","country_name":"\u6cd5\u56fd"},{"city_id":"9276","city_name":"\u963f\u897f\u897f","en_name":"Assisi","pingyin":"axixi","latitude":"43.066666","longitude":"12.616667","ctry_id":"189","country_name":"\u610f\u5927\u5229"},{"city_id":"7197","city_name":"\u963f\u96c5\u514b\u8096","en_name":"Ajaccio","pingyin":"ayakexiao","latitude":"41.919228","longitude":"8.738635","ctry_id":"186","country_name":"\u6cd5\u56fd"},{"city_id":"9414","city_name":"\u963f\u65c3\u9640","en_name":"Ajanta","pingyin":"azhantuo","latitude":"20.533333","longitude":"75.750000","ctry_id":"231","country_name":"\u5370\u5ea6"}]},{"section":"b","list":[{"city_id":"10104","city_name":"\u516b\u6253\u7075\u518d\u4e5f","en_name":"Petaling Jaya","pingyin":"badalingzaiye","latitude":"3.107094","longitude":"101.608253","ctry_id":"213","country_name":"\u9a6c\u6765\u897f\u4e9a"},{"city_id":"10427","city_name":"\u5df4\u6de1\u5c9b","en_name":"Batam Island","pingyin":"badandao","latitude":"1.082828","longitude":"104.030457","ctry_id":"570","country_name":"\u5370\u5ea6\u5c3c\u897f\u4e9a"},{"city_id":"12469","city_name":"\u5df4\u4e39\u5409\u6797\u6c99\u6f20","en_name":"Badanjilinshamo","pingyin":"badanjilinshamo","latitude":"39.725899","longitude":"102.621002","ctry_id":"11","country_name":"\u4e2d\u56fd"},{"city_id":"83","city_name":"\u5df4\u5fb7\u5c97","en_name":"Bhaktapur","pingyin":"badegang","latitude":"27.673031","longitude":"85.427856","ctry_id":"220","country_name":"\u5c3c\u6cca\u5c14"},{"city_id":"10088","city_name":"\u5df4\u767b","en_name":"Baden","pingyin":"badeng","latitude":"47.465473","longitude":"8.310702","ctry_id":"524","country_name":"\u745e\u58eb"},{"city_id":"7024","city_name":"\u5df4\u767b-\u5df4\u767b","en_name":"Baden baden","pingyin":"badengbadeng","latitude":"48.765640","longitude":"8.228524","ctry_id":"15","country_name":"\u5fb7\u56fd"},{"city_id":"7025","city_name":"\u5df4\u767b\u7b26\u817e\u5821\u5dde","en_name":"Baden Wurttemberg","pingyin":"badengfutengbaozhou","latitude":"48.661606","longitude":"9.350134","ctry_id":"15","country_name":"\u5fb7\u56fd"},{"city_id":"8804","city_name":"\u82ad\u5824\u96c5","en_name":"Pattaya","pingyin":"badiya","latitude":"12.927500","longitude":"100.875275","ctry_id":"215","country_name":"\u6cf0\u56fd"},{"city_id":"9489","city_name":"\u5df4\u4e1c\uff08\u82cf\u95e8\u7b54\u814a\uff09","en_name":"Padang","pingyin":"badong","latitude":"-0.944806","longitude":"100.356934","ctry_id":"570","country_name":"\u5370\u5ea6\u5c3c\u897f\u4e9a"},{"city_id":"8701","city_name":"\u5df4\u675c\u52d2","en_name":"Badulla","pingyin":"badule","latitude":"6.984722","longitude":"81.056389","ctry_id":"537","country_name":"\u65af\u91cc\u5170\u5361"},{"city_id":"7887","city_name":"\u5df4\u5c14\u7684\u6469","en_name":"Baltimore","pingyin":"baerdemo","latitude":"39.290386","longitude":"-76.612190","ctry_id":"236","country_name":"\u7f8e\u56fd"},{"city_id":"7026","city_name":"\u5df4\u4f10\u5229\u4e9a","en_name":"Bavaria","pingyin":"bafaliya","latitude":"48.790447","longitude":"11.497889","ctry_id":"15","country_name":"\u5fb7\u56fd"},{"city_id":"10169","city_name":"\u5df4\u683c\u8fbe","en_name":"Baghdad","pingyin":"bageda","latitude":"33.325001","longitude":"44.422001","ctry_id":"1035","country_name":"\u4f0a\u62c9\u514b"},{"city_id":"6427","city_name":"\u5df4\u8d6b\u8fbe\u5c14","en_name":"Bahir dar","pingyin":"bahedaer","latitude":"11.600000","longitude":"37.383331","ctry_id":"405","country_name":"\u57c3\u585e\u4fc4\u6bd4\u4e9a"},{"city_id":"8525","city_name":"\u767d\u6ee8","en_name":"Shirahama","pingyin":"baibin","latitude":"33.678165","longitude":"135.348129","ctry_id":"14","country_name":"\u65e5\u672c"},{"city_id":"11617","city_name":"\u767d\u57ce","en_name":"Baicheng","pingyin":"baicheng","latitude":"45.619640","longitude":"122.839027","ctry_id":"11","country_name":"\u4e2d\u56fd"},{"city_id":"12766","city_name":"\u62dc\u57ce","en_name":"Baicheng","pingyin":"baicheng","latitude":"41.796909","longitude":"81.874153","ctry_id":"11","country_name":"\u4e2d\u56fd"},{"city_id":"13730","city_name":"\u767d\u5ddd\u6751","en_name":"Shirakawa, Gifu","pingyin":"baichuancun","latitude":"36.270805","longitude":"136.898483","ctry_id":"14","country_name":"\u65e5\u672c"},{"city_id":"15456","city_name":"\u767d\u5ddd\u4e61","en_name":"Shirakawa G\u014d","pingyin":"baichuanxiang","latitude":"36.270805","longitude":"136.898483","ctry_id":"14","country_name":"\u65e5\u672c"},{"city_id":"12651","city_name":"\u767d\u6717","en_name":"Bailang","pingyin":"bailang","latitude":"29.107689","longitude":"89.261978","ctry_id":"11","country_name":"\u4e2d\u56fd"},{"city_id":"8968","city_name":"\u767d\u62c9\u5955","en_name":"Kuala belait","pingyin":"bailayi","latitude":"4.583333","longitude":"114.183334","ctry_id":"558","country_name":"\u6587\u83b1"},{"city_id":"6604","city_name":"\u62dc\u4f26\u6e7e","en_name":"Byron bay","pingyin":"bailunwan","latitude":"-28.650000","longitude":"153.616669","ctry_id":"240","country_name":"\u6fb3\u5927\u5229\u4e9a"},{"city_id":"9978","city_name":"\u62dc\u7f57\u4f0a\u7279","en_name":"Bayreuth","pingyin":"bailuoyite","latitude":"49.945641","longitude":"11.571335","ctry_id":"15","country_name":"\u5fb7\u56fd"},{"city_id":"8526","city_name":"\u767d\u9a6c\u6751","en_name":"Hakuba","pingyin":"baimacun","latitude":"36.698181","longitude":"137.861847","ctry_id":"14","country_name":"\u65e5\u672c"},{"city_id":"7536","city_name":"\u767d\u9a6c\u5e02","en_name":"Whitehorse","pingyin":"baimashi","latitude":"60.716667","longitude":"-135.050003","ctry_id":"238","country_name":"\u52a0\u62ff\u5927"},{"city_id":"7651","city_name":"\u67ec\u57d4\u5be8\u767d\u9a6c\u5e02","en_name":"Kep city","pingyin":"baimashi","latitude":"10.496721","longitude":"104.318100","ctry_id":"219","country_name":"\u67ec\u57d4\u5be8"},{"city_id":"10739","city_name":"\u767e\u5185\u56fd\u5bb6\u516c\u56ed","en_name":"Torres del Paine National Park","pingyin":"baineiguojiagongyuan","latitude":"-50.985233","longitude":"-73.005524","ctry_id":"575","country_name":"\u667a\u5229"},{"city_id":"12067","city_name":"\u767e\u8272","en_name":"Baise","pingyin":"baise","latitude":"23.902332","longitude":"106.618202","ctry_id":"11","country_name":"\u4e2d\u56fd"},{"city_id":"12458","city_name":"\u767d\u6c99","en_name":"Baisha","pingyin":"baisha","latitude":"19.224873","longitude":"109.451477","ctry_id":"11","country_name":"\u4e2d\u56fd"},{"city_id":"10460","city_name":"\u767d\u6c99\u5c9b","en_name":"Pulau Besar","pingyin":"baishadao","latitude":"2.438030","longitude":"103.981117","ctry_id":"213","country_name":"\u9a6c\u6765\u897f\u4e9a"},{"city_id":"11615","city_name":"\u767d\u5c71\u5e02","en_name":"Baishanshi","pingyin":"baishanshi","latitude":"41.940166","longitude":"126.425797","ctry_id":"11","country_name":"\u4e2d\u56fd"},{"city_id":"6770","city_name":"\u767d\u6c99\u74e6","en_name":"Peshawar","pingyin":"baishawa","latitude":"34.007778","longitude":"71.573334","ctry_id":"414","country_name":"\u5df4\u57fa\u65af\u5766"},{"city_id":"12085","city_name":"\u767d\u5bfa\u6751","en_name":"Baisicun","pingyin":"baisicun","latitude":"35.679867","longitude":"114.448135","ctry_id":"11","country_name":"\u4e2d\u56fd"},{"city_id":"10425","city_name":"\u62dc\u7ef4\u63d0","en_name":"Bawiti","pingyin":"baiweiti","latitude":"28.348841","longitude":"28.850161","ctry_id":"244","country_name":"\u57c3\u53ca"},{"city_id":"7652","city_name":"\u67cf\u5a01\u590f","en_name":"Preah Vihear","pingyin":"baiweixia","latitude":"14.393166","longitude":"104.680023","ctry_id":"219","country_name":"\u67ec\u57d4\u5be8"},{"city_id":"8806","city_name":"\u62dc\u53bf","en_name":"Pai","pingyin":"baixian","latitude":"19.316668","longitude":"98.449997","ctry_id":"215","country_name":"\u6cf0\u56fd"},{"city_id":"11667","city_name":"\u767d\u6d0b\u6dc0","en_name":"Baiyangdian","pingyin":"baiyangdian","latitude":"38.867794","longitude":"116.047302","ctry_id":"11","country_name":"\u4e2d\u56fd"},{"city_id":"11788","city_name":"\u767d\u94f6","en_name":"Baiyin","pingyin":"baiyin","latitude":"36.544758","longitude":"104.138557","ctry_id":"11","country_name":"\u4e2d\u56fd"},{"city_id":"11805","city_name":"\u767d\u7389","en_name":"Baiyu","pingyin":"baiyu","latitude":"31.209913","longitude":"98.824181","ctry_id":"11","country_name":"\u4e2d\u56fd"},{"city_id":"12828","city_name":"\u767d\u7389\u53bf","en_name":"Baiyuxian","pingyin":"baiyuxian","latitude":"31.209913","longitude":"98.824181","ctry_id":"11","country_name":"\u4e2d\u56fd"},{"city_id":"9550","city_name":"\u5df4\u514b\u65af\u987f","en_name":"Buxton","pingyin":"bakesidun","latitude":"53.250000","longitude":"-1.916667","ctry_id":"13","country_name":"\u82f1\u56fd"},{"city_id":"9877","city_name":"\u5df4\u5e93","en_name":"Baku","pingyin":"baku","latitude":"40.434952","longitude":"49.867622","ctry_id":"404","country_name":"\u963f\u585e\u62dc\u7586"},{"city_id":"7387","city_name":"\u5df4\u62c9\u5fb7\u7f57","en_name":"Varadero","pingyin":"baladeluo","latitude":"23.153610","longitude":"-81.251389","ctry_id":"458","country_name":"\u53e4\u5df4"},{"city_id":"13146","city_name":"\u5df4\u62c9\u745e\u7279","en_name":"Ballarat","pingyin":"balaruite","latitude":"-37.563648","longitude":"143.867188","ctry_id":"240","country_name":"\u6fb3\u5927\u5229\u4e9a"},{"city_id":"7262","city_name":"\u5df4\u62c9\u671b\u5c9b","en_name":"Palawan","pingyin":"balawangdao","latitude":"9.839055","longitude":"118.736343","ctry_id":"446","country_name":"\u83f2\u5f8b\u5bbe"},{"city_id":"10636","city_name":"\u5df4\u52d2\u8d1d\u514b","en_name":"Baalbek","pingyin":"balebeike","latitude":"34.004688","longitude":"36.211040","ctry_id":"488","country_name":"\u9ece\u5df4\u5ae9"},{"city_id":"20","city_name":"\u5df4\u9ece","en_name":"Paris","pingyin":"bali","latitude":"48.856613","longitude":"2.352222","ctry_id":"186","country_name":"\u6cd5\u56fd"},{"city_id":"9287","city_name":"\u5df4\u91cc","en_name":"Bari","pingyin":"bali","latitude":"41.133331","longitude":"16.850000","ctry_id":"189","country_name":"\u610f\u5927\u5229"},{"city_id":"10740","city_name":"\u5df4\u5ed6","en_name":"Bario","pingyin":"bali","latitude":"3.746437","longitude":"115.451508","ctry_id":"213","country_name":"\u9a6c\u6765\u897f\u4e9a"},{"city_id":"11227","city_name":"\u5df4\u5229\u963f\u91cc\u7fa4\u5c9b","en_name":"Balearic Islands","pingyin":"balialiqundao","latitude":"39.500000","longitude":"3.000000","ctry_id":"182","country_name":"\u897f\u73ed\u7259"},{"city_id":"9491","city_name":"\u5df4\u91cc\u5df4\u677f","en_name":"Balikpapan","pingyin":"balibaban","latitude":"-1.283333","longitude":"116.833336","ctry_id":"570","country_name":"\u5370\u5ea6\u5c3c\u897f\u4e9a"},{"city_id":"9492","city_name":"\u5df4\u5398\u5c9b","en_name":"Bali","pingyin":"balidao","latitude":"-8.273642","longitude":"115.210892","ctry_id":"570","country_name":"\u5370\u5ea6\u5c3c\u897f\u4e9a"},{"city_id":"12729","city_name":"\u5df4\u91cc\u5764\u53bf","en_name":"Balikunxian","pingyin":"balikunxian","latitude":"43.599152","longitude":"93.016609","ctry_id":"11","country_name":"\u4e2d\u56fd"},{"city_id":"6440","city_name":"\u5df4\u5229\u9999\u519c","en_name":"Ballyshannon","pingyin":"balixiangnong","latitude":"54.500000","longitude":"-8.183333","ctry_id":"406","country_name":"\u7231\u5c14\u5170"},{"city_id":"10268","city_name":"\u5df4\u5229\u4e9a\u591a\u5229\u5fb7","en_name":"Valladolid","pingyin":"baliyaduolide","latitude":"41.652252","longitude":"-4.724532","ctry_id":"182","country_name":"\u897f\u73ed\u7259"},{"city_id":"11243","city_name":"\u74e6\u4f26\u897f\u4e9a\u81ea\u6cbb\u533a","en_name":"Valencian Community","pingyin":"balunxiyazizhiqu","latitude":"39.484013","longitude":"-0.753281","ctry_id":"182","country_name":"\u897f\u73ed\u7259"},{"city_id":"6720","city_name":"\u82ad\u841d\u838e","en_name":"Barossa Valley","pingyin":"baluosashangu","latitude":"-34.533333","longitude":"138.949997","ctry_id":"240","country_name":"\u6fb3\u5927\u5229\u4e9a"},{"city_id":"12107","city_name":"\u5df4\u9a6c\u7476\u65cf\u81ea\u6cbb\u53bf","en_name":"Bama","pingyin":"bama","latitude":"24.142300","longitude":"107.258591","ctry_id":"11","country_name":"\u4e2d\u56fd"},{"city_id":"11735","city_name":"\u516b\u7f8e","en_name":"Bamei","pingyin":"bamei","latitude":"30.483278","longitude":"101.484856","ctry_id":"11","country_name":"\u4e2d\u56fd"},{"city_id":"6345","city_name":"\u5df4\u7c73\u626c","en_name":"Bamiyan","pingyin":"bamiyang","latitude":"34.824165","longitude":"67.821671","ctry_id":"401","country_name":"\u963f\u5bcc\u6c57"},{"city_id":"6796","city_name":"\u5df4\u62ff\u9a6c\u57ce","en_name":"Panama city","pingyin":"banamacheng","latitude":"8.966667","longitude":"-79.533333","ctry_id":"417","country_name":"\u5df4\u62ff\u9a6c"},{"city_id":"10156","city_name":"\u5df4\u62ff\u5a01","en_name":"Banaue","pingyin":"banawei","latitude":"16.918888","longitude":"121.058891","ctry_id":"446","country_name":"\u83f2\u5f8b\u5bbe"},{"city_id":"7027","city_name":"\u73ed\u8d1d\u683c","en_name":"Bamberg","pingyin":"banboge","latitude":"49.898815","longitude":"10.902764","ctry_id":"15","country_name":"\u5fb7\u56fd"},{"city_id":"10659","city_name":"\u73ed\u4f2f\u91cc","en_name":"Bunbury","pingyin":"banboli","latitude":"-33.327068","longitude":"115.639175","ctry_id":"240","country_name":"\u6fb3\u5927\u5229\u4e9a"},{"city_id":"6605","city_name":"\u73ed\u5fb7\u5821","en_name":"Bundaberg","pingyin":"bandebao","latitude":"-24.850000","longitude":"152.350006","ctry_id":"240","country_name":"\u6fb3\u5927\u5229\u4e9a"},{"city_id":"7518","city_name":"\u73ed\u592b\u56fd\u5bb6\u516c\u56ed","en_name":"Banff National Park","pingyin":"banfuguojiagongyuan","latitude":"51.441963","longitude":"-116.084145","ctry_id":"238","country_name":"\u52a0\u62ff\u5927"},{"city_id":"7519","city_name":"\u73ed\u592b\u9547","en_name":"Banff town","pingyin":"banfuzhen","latitude":"51.178364","longitude":"-115.570770","ctry_id":"238","country_name":"\u52a0\u62ff\u5927"},{"city_id":"8969","city_name":"\u90a6\u963f","en_name":"Bangar","pingyin":"banga","latitude":"4.716667","longitude":"115.066666","ctry_id":"558","country_name":"\u6587\u83b1"},{"city_id":"11774","city_name":"\u868c\u57e0","en_name":"Bangbu","pingyin":"bangbu","latitude":"32.916286","longitude":"117.389717","ctry_id":"11","country_name":"\u4e2d\u56fd"},{"city_id":"11979","city_name":"\u73ed\u6208","en_name":"Bange","pingyin":"bange","latitude":"31.392410","longitude":"90.009956","ctry_id":"11","country_name":"\u4e2d\u56fd"},{"city_id":"8950","city_name":"\u90a6\u6208","en_name":"Bangor","pingyin":"bangge","latitude":"53.227104","longitude":"-4.129642","ctry_id":"13","country_name":"\u82f1\u56fd"},{"city_id":"9995","city_name":"\u90a6\u54af\u5c9b","en_name":" Pangkor","pingyin":"banggedao","latitude":"4.227237","longitude":"100.559364","ctry_id":"213","country_name":"\u9a6c\u6765\u897f\u4e9a"},{"city_id":"13742","city_name":"\u90a6\u52b3","en_name":"Panglao City","pingyin":"banglao","latitude":"9.583333","longitude":"123.750000","ctry_id":"446","country_name":"\u83f2\u5f8b\u5bbe"},{"city_id":"7654","city_name":"\u78c5\u6e05\u626c","en_name":"Kompong chhnang","pingyin":"bangqingyang","latitude":"12.250000","longitude":"104.666664","ctry_id":"219","country_name":"\u67ec\u57d4\u5be8"},{"city_id":"7655","city_name":"\u78c5\u540c","en_name":"Kompong thom","pingyin":"bangtong","latitude":"12.700000","longitude":"104.900002","ctry_id":"219","country_name":"\u67ec\u57d4\u5be8"},{"city_id":"7656","city_name":"\u78c5\u6e5b","en_name":"Kompong cham","pingyin":"bangzhan","latitude":"12.000000","longitude":"105.449997","ctry_id":"219","country_name":"\u67ec\u57d4\u5be8"},{"city_id":"10223","city_name":"\u73ed\u52a0\u7f57\u5c14","en_name":"Bangalore","pingyin":"banjialuoer","latitude":"12.971599","longitude":"77.594566","ctry_id":"231","country_name":"\u5370\u5ea6"},{"city_id":"7892","city_name":"\u534a\u6708\u6e7e","en_name":"Half moon bay","pingyin":"banyuewan","latitude":"37.463612","longitude":"-122.427498","ctry_id":"236","country_name":"\u7f8e\u56fd"},{"city_id":"11764","city_name":"\u4fdd\u5b9a","en_name":"Baoding","pingyin":"baoding","latitude":"38.873890","longitude":"115.464806","ctry_id":"11","country_name":"\u4e2d\u56fd"},{"city_id":"7264","city_name":"\u8584\u8377\u5c9b","en_name":"Bohol","pingyin":"baohedao","latitude":"9.858663","longitude":"124.177704","ctry_id":"446","country_name":"\u83f2\u5f8b\u5bbe"},{"city_id":"11903","city_name":"\u5b9d\u9e21","en_name":"Baoji","pingyin":"baoji","latitude":"34.361980","longitude":"107.237976","ctry_id":"11","country_name":"\u4e2d\u56fd"},{"city_id":"11746","city_name":"\u4fdd\u5c71","en_name":"Baoshan","pingyin":"baoshan","latitude":"25.112045","longitude":"99.161758","ctry_id":"11","country_name":"\u4e2d\u56fd"},{"city_id":"12460","city_name":"\u4fdd\u4ead","en_name":"Baoting","pingyin":"baoting","latitude":"18.639130","longitude":"109.702591","ctry_id":"11","country_name":"\u4e2d\u56fd"},{"city_id":"11626","city_name":"\u5305\u5934","en_name":"Baotou","pingyin":"baotou","latitude":"40.657448","longitude":"109.840347","ctry_id":"11","country_name":"\u4e2d\u56fd"},{"city_id":"12650","city_name":"\u5df4\u9752","en_name":"Baqing","pingyin":"baqing","latitude":"31.918564","longitude":"94.053467","ctry_id":"11","country_name":"\u4e2d\u56fd"},{"city_id":"8643","city_name":"\u5df4\u585e\u5c14","en_name":"Basel","pingyin":"basaier","latitude":"47.566666","longitude":"7.600000","ctry_id":"524","country_name":"\u745e\u58eb"},{"city_id":"22","city_name":"\u5df4\u585e\u7f57\u90a3","en_name":"Barcelona","pingyin":"basailuona","latitude":"41.387917","longitude":"2.169919","ctry_id":"182","country_name":"\u897f\u73ed\u7259"},{"city_id":"7738","city_name":"\u5df4\u8272","en_name":"Pakse","pingyin":"base","latitude":"15.116667","longitude":"105.783333","ctry_id":"487","country_name":"\u8001\u631d"},{"city_id":"10662","city_name":"\u5df4\u745f\u5c14\u987f","en_name":"Busselton","pingyin":"baseerdun","latitude":"-33.649944","longitude":"115.344612","ctry_id":"240","country_name":"\u6fb3\u5927\u5229\u4e9a"},{"city_id":"10107","city_name":"\u5df4\u751f","en_name":"Kelang","pingyin":"basheng","latitude":"3.043061","longitude":"101.440659","ctry_id":"213","country_name":"\u9a6c\u6765\u897f\u4e9a"},{"city_id":"8805","city_name":"\u5df4\u8700","en_name":"Prachuap khiri khan","pingyin":"bashu","latitude":"11.816667","longitude":"99.800003","ctry_id":"215","country_name":"\u6cf0\u56fd"},{"city_id":"9551","city_name":"\u5df4\u65af","en_name":"Bath","pingyin":"basi","latitude":"51.379444","longitude":"-2.365556","ctry_id":"13","country_name":"\u82f1\u56fd"},{"city_id":"11229","city_name":"\u5df4\u65af\u514b\u81ea\u6cbb\u533a","en_name":"Basque Country","pingyin":"basikezizhiqu","latitude":"42.989624","longitude":"-2.618927","ctry_id":"182","country_name":"\u897f\u73ed\u7259"},{"city_id":"13238","city_name":"\u5df4\u65af\u5229\u5361\u5854\u5927\u533a","en_name":"Basilicata","pingyin":"basilikatadaqu","latitude":"40.643078","longitude":"15.969988","ctry_id":"189","country_name":"\u610f\u5927\u5229"},{"city_id":"7889","city_name":"\u5df4\u65af\u6258","en_name":"Barstow","pingyin":"basituo","latitude":"34.898609","longitude":"-117.021942","ctry_id":"236","country_name":"\u7f8e\u56fd"},{"city_id":"11978","city_name":"\u516b\u5bbf","en_name":"Basu","pingyin":"basu","latitude":"30.053209","longitude":"96.917839","ctry_id":"11","country_name":"\u4e2d\u56fd"},{"city_id":"6349","city_name":"\u5df4\u5854\u54e5\u5c3c\u4e9a","en_name":"Patagonia","pingyin":"batageniyadiqu","latitude":"-41.810146","longitude":"-68.906265","ctry_id":"243","country_name":"\u963f\u6839\u5ef7"},{"city_id":"11191","city_name":"\u5df4\u5854\u5229\u4e9a","en_name":"Batalha","pingyin":"bataliya","latitude":"39.658295","longitude":"-8.824124","ctry_id":"523","country_name":"\u8461\u8404\u7259"},{"city_id":"11983","city_name":"\u5df4\u5858","en_name":"Batang","pingyin":"batang","latitude":"30.004677","longitude":"99.110710","ctry_id":"11","country_name":"\u4e2d\u56fd"},{"city_id":"13368","city_name":"\u5df4\u7279\u7c73\u5c14","en_name":"Buttermere","pingyin":"batemier","latitude":"54.531265","longitude":"-3.264597","ctry_id":"13","country_name":"\u82f1\u56fd"},{"city_id":"6537","city_name":"\u5df4\u5fb7\u4f9d\u820d","en_name":"Bad ischl","pingyin":"bateyishier","latitude":"47.716667","longitude":"13.616667","ctry_id":"198","country_name":"\u5965\u5730\u5229"},{"city_id":"7891","city_name":"\u5df4\u541e\u9c81\u65e5","en_name":"Baton rouge","pingyin":"batunluri","latitude":"30.450556","longitude":"-91.154442","ctry_id":"236","country_name":"\u7f8e\u56fd"},{"city_id":"6809","city_name":"\u5df4\u897f\u5229\u4e9a","en_name":"Brasilia","pingyin":"baxiliya","latitude":"-15.828749","longitude":"-47.947197","ctry_id":"242","country_name":"\u5df4\u897f"},{"city_id":"8306","city_name":"\u5df4\u4e9a\u591a\u5229\u5fb7","en_name":"Valladolid","pingyin":"bayaduolide","latitude":"20.688610","longitude":"-88.199715","ctry_id":"515","country_name":"\u58a8\u897f\u54e5"},{"city_id":"8388","city_name":"\u5df4\u4e9a\u5c14\u5854\u6e2f","en_name":"Puerto vallarta","pingyin":"bayaertagang","latitude":"20.616667","longitude":"-105.250000","ctry_id":"515","country_name":"\u58a8\u897f\u54e5"},{"city_id":"11638","city_name":"\u5df4\u5f66\u6dd6\u5c14","en_name":"Bayannaoer","pingyin":"bayannaoer","latitude":"40.743214","longitude":"107.387657","ctry_id":"11","country_name":"\u4e2d\u56fd"},{"city_id":"11969","city_name":"\u516b\u4e00","en_name":"Bayi","pingyin":"bayi","latitude":"30.414141","longitude":"120.679337","ctry_id":"11","country_name":"\u4e2d\u56fd"},{"city_id":"11942","city_name":"\u5df4\u97f3\u5e03\u9c81\u514b","en_name":"Bayinbuluke","pingyin":"bayinbuluke","latitude":"43.034061","longitude":"84.151779","ctry_id":"11","country_name":"\u4e2d\u56fd"},{"city_id":"11812","city_name":"\u5df4\u97f3\u90ed\u695e","en_name":"Bayinguoleng","pingyin":"bayinguoleng","latitude":"41.764114","longitude":"86.145294","ctry_id":"11","country_name":"\u4e2d\u56fd"},{"city_id":"7201","city_name":"\u5df4\u7ea6","en_name":"Bayeux","pingyin":"bayue","latitude":"49.266666","longitude":"-0.700000","ctry_id":"186","country_name":"\u6cd5\u56fd"},{"city_id":"11828","city_name":"\u5df4\u4e2d","en_name":"Bazhong","pingyin":"bazhong","latitude":"31.867903","longitude":"106.747475","ctry_id":"11","country_name":"\u4e2d\u56fd"},{"city_id":"10111","city_name":"\u5df4\u682a\u5df4\u8f96","en_name":"Batu Pahat","pingyin":"bazhubaxia","latitude":"1.843577","longitude":"102.947060","ctry_id":"213","country_name":"\u9a6c\u6765\u897f\u4e9a"},{"city_id":"11375","city_name":"\u5317\u7231\u5c14\u5170","en_name":"North Ireland","pingyin":"beiaierlan","latitude":"53.412910","longitude":"-8.243890","ctry_id":"13","country_name":"\u82f1\u56fd"},{"city_id":"9555","city_name":"\u5317\u5b89\u666e\u6566","en_name":"Northampton","pingyin":"beianpudun","latitude":"52.250000","longitude":"-0.883333","ctry_id":"13","country_name":"\u82f1\u56fd"},{"city_id":"8808","city_name":"\u5317\u78a7","en_name":"Kanchanaburi","pingyin":"beibiganzhanawuli","latitude":"14.019167","longitude":"99.529724","ctry_id":"215","country_name":"\u6cf0\u56fd"},{"city_id":"11105","city_name":"\u5317\u5bbe","en_name":"Pakbeng","pingyin":"beibin","latitude":"19.898979","longitude":"101.141914","ctry_id":"487","country_name":"\u8001\u631d"},{"city_id":"13282","city_name":"\u5317\u535a\u6ed5\u7701","en_name":"Norrbottens l\u00e4n","pingyin":"beibotengsheng","latitude":"66.830925","longitude":"20.399197","ctry_id":"202","country_name":"\u745e\u5178"},{"city_id":"13209","city_name":"\u5317\u90e8-\u52a0\u6765\u6d77\u5ce1\u5927\u533a","en_name":"Nord-Pas-de-Calais","pingyin":"beibujialaihaixiadaqu","latitude":"50.480114","longitude":"2.793726","ctry_id":"186","country_name":"\u6cd5\u56fd"},{"city_id":"13267","city_name":"\u5317\u5e03\u62c9\u73ed\u7279\u7701","en_name":"Provincie Noord-Brabant","pingyin":"beibulabantesheng","latitude":"51.482655","longitude":"5.232169","ctry_id":"200","country_name":"\u8377\u5170"},{"city_id":"12834","city_name":"\u5317\u5ddd","en_name":"Beichuan","pingyin":"beichuan","latitude":"31.617199","longitude":"104.468170","ctry_id":"11","country_name":"\u4e2d\u56fd"},{"city_id":"11663","city_name":"\u5317\u6234\u6cb3","en_name":"Beidaihe","pingyin":"beidaihe","latitude":"39.834595","longitude":"119.484520","ctry_id":"11","country_name":"\u4e2d\u56fd"},{"city_id":"6445","city_name":"\u8d1d\u5c14\u6cd5\u65af\u7279","en_name":"Belfast","pingyin":"beierfasite","latitude":"54.597443","longitude":"-5.934068","ctry_id":"13","country_name":"\u82f1\u56fd"},{"city_id":"8667","city_name":"\u8d1d\u5c14\u683c\u83b1\u5fb7","en_name":"Belgrade","pingyin":"beiergelaide","latitude":"44.820557","longitude":"20.462221","ctry_id":"527","country_name":"\u585e\u5c14\u7ef4\u4e9a"},{"city_id":"8452","city_name":"\u5351\u5c14\u6839","en_name":"Bergen","pingyin":"beiergen","latitude":"60.391262","longitude":"5.322054","ctry_id":"521","country_name":"\u632a\u5a01"},{"city_id":"10261","city_name":"\u8d1d\u5c14\u52a0\u9a6c","en_name":"Bergama","pingyin":"beierjiama","latitude":"39.116669","longitude":"27.183332","ctry_id":"195","country_name":"\u571f\u8033\u5176"},{"city_id":"13755","city_name":"\u8d1d\u5c14\u7ef4\u5c24","en_name":"Bellevue","pingyin":"beierweiyou","latitude":"47.610378","longitude":"-122.200676","ctry_id":"236","country_name":"\u7f8e\u56fd"},{"city_id":"13323","city_name":"\u5317\u65b9\u90a6","en_name":"Uttar Pradesh","pingyin":"beifangbang","latitude":"27.570589","longitude":"80.098190","ctry_id":"231","country_name":"\u5370\u5ea6"},{"city_id":"7800","city_name":"\u5317\u6d77","en_name":"Butterworth","pingyin":"beihai","latitude":"5.416667","longitude":"100.400002","ctry_id":"213","country_name":"\u9a6c\u6765\u897f\u4e9a"},{"city_id":"12013","city_name":"\u5317\u6d77\u5e02","en_name":"Beihai","pingyin":"beihai","latitude":"21.481255","longitude":"109.119926","ctry_id":"11","country_name":"\u4e2d\u56fd"},{"city_id":"11187","city_name":"\u5317\u6d77\u9053","en_name":"Hokkaido","pingyin":"beihaidao","latitude":"43.320923","longitude":"142.840942","ctry_id":"14","country_name":"\u65e5\u672c"},{"city_id":"13264","city_name":"\u5317\u8377\u5170\u7701","en_name":"Provincie Noord-Holland","pingyin":"beihelansheng","latitude":"52.520588","longitude":"4.788474","ctry_id":"200","country_name":"\u8377\u5170"},{"city_id":"7091","city_name":"\u8d1d\u52a0\u5c14\u6e56","en_name":"Lake baikal","pingyin":"beijiaerhu","latitude":"53.173599","longitude":"107.662498","ctry_id":"208","country_name":"\u4fc4\u7f57\u65af"},{"city_id":"9288","city_name":"\u8d1d\u52a0\u83ab","en_name":"Bergamo","pingyin":"beijiamo","latitude":"45.687172","longitude":"9.664482","ctry_id":"189","country_name":"\u610f\u5927\u5229"},{"city_id":"8453","city_name":"\u5317\u89d2","en_name":"North Cape","pingyin":"beijiao","latitude":"71.167778","longitude":"25.802500","ctry_id":"521","country_name":"\u632a\u5a01"},{"city_id":"11593","city_name":"\u5317\u4eac","en_name":"Beijing","pingyin":"Beijing","latitude":"39.904209","longitude":"116.407394","ctry_id":"11","country_name":"\u4e2d\u56fd"},{"city_id":"10400","city_name":"\u5317\u4e5d\u5dde\u5e02","en_name":"Kitakyushu","pingyin":"beijiuzhoushi","latitude":"33.883408","longitude":"130.875214","ctry_id":"14","country_name":"\u65e5\u672c"},{"city_id":"7896","city_name":"\u5317\u5361\u7f57\u83b1\u7eb3\u5dde","en_name":"North carolina","pingyin":"beikaluolainazhou","latitude":"35.759575","longitude":"-79.019302","ctry_id":"236","country_name":"\u7f8e\u56fd"},{"city_id":"7898","city_name":"\u8d1d\u514b\u65af\u83f2\u5c14\u5fb7","en_name":"Bakersfield","pingyin":"beikesifeierde","latitude":"35.373333","longitude":"-119.017776","ctry_id":"236","country_name":"\u7f8e\u56fd"},{"city_id":"9558","city_name":"\u8d1d\u514b\u97e6\u5c14","en_name":"Bakewell","pingyin":"beikeweier","latitude":"53.200001","longitude":"-1.666667","ctry_id":"13","country_name":"\u82f1\u56fd"},{"city_id":"7030","city_name":"\u5317\u83b1\u8335-\u5a01\u65af\u7279\u6cd5\u4f26\u5dde","en_name":"North rhine westphal","pingyin":"beilaiyinweisitefalunzhou","latitude":"51.433235","longitude":"7.661594","ctry_id":"15","country_name":"\u5fb7\u56fd"},{"city_id":"13762","city_name":"\u8d1d\u62c9\u5409\u5965","en_name":"Bellagio","pingyin":"beilajiao","latitude":"45.978249","longitude":"9.258849","ctry_id":"189","country_name":"\u610f\u5927\u5229"},{"city_id":"6606","city_name":"\u5317\u9886\u5730","en_name":"Northern Territory","pingyin":"beilingdi","latitude":"-19.491411","longitude":"132.550964","ctry_id":"240","country_name":"\u6fb3\u5927\u5229\u4e9a"},{"city_id":"10085","city_name":"\u8d1d\u6797\u4f50\u7eb3","en_name":"Bellinzona","pingyin":"beilinzuona","latitude":"46.198494","longitude":"9.026918","ctry_id":"524","country_name":"\u745e\u58eb"},{"city_id":"12929","city_name":"\u5317\u6d41","en_name":"Beiliu","pingyin":"beiliu","latitude":"22.708311","longitude":"110.354218","ctry_id":"11","country_name":"\u4e2d\u56fd"},{"city_id":"6810","city_name":"\u8d1d\u6d1b\u5965\u91cc\u85cf\u7279","en_name":"Belo horizonte","pingyin":"beiluoaolicangte","latitude":"-19.919067","longitude":"-43.938576","ctry_id":"242","country_name":"\u5df4\u897f"},{"city_id":"7740","city_name":"\u8d1d\u9c81\u7279","en_name":"Beirut","pingyin":"beilute","latitude":"33.871944","longitude":"35.509724","ctry_id":"488","country_name":"\u9ece\u5df4\u5ae9"},{"city_id":"13748","city_name":"\u5317\u9a6c\u7d2f\u73af\u7901","en_name":"North Male Atoll","pingyin":"beimaleihuanjiao","latitude":"4.416667","longitude":"73.500000","ctry_id":"497","country_name":"\u9a6c\u5c14\u4ee3\u592b"},{"city_id":"13196","city_name":"\u5317\u65e5\u5fb7\u5170\u5927\u533a","en_name":"Region Nordjylland","pingyin":"beiridelandaqu","latitude":"56.830742","longitude":"9.493053","ctry_id":"205","country_name":"\u4e39\u9ea6"},{"city_id":"10547","city_name":"\u8d1d\u6851\u677e","en_name":"Besancon","pingyin":"beisangsong","latitude":"47.237827","longitude":"6.024054","ctry_id":"186","country_name":"\u6cd5\u56fd"},{"city_id":"10298","city_name":"\u5317\u5ce1\u6e7e","en_name":"Nordfjord","pingyin":"beixiawan","latitude":"61.861721","longitude":"6.015911","ctry_id":"521","country_name":"\u632a\u5a01"},{"city_id":"7031","city_name":"\u8d1d\u5e0c\u7279\u65af\u52a0\u767b","en_name":"Berchtesgaden","pingyin":"beixitesijiadeng","latitude":"47.633331","longitude":"13.000000","ctry_id":"15","country_name":"\u5fb7\u56fd"},{"city_id":"13081","city_name":"\u8d1d\u5e0c\u7279\u65af\u52a0\u767b\u56fd\u5bb6\u516c\u56ed","en_name":"Berchtesgaden National Park","pingyin":"beixitesijiadengguojiagongyuan","latitude":"47.630180","longitude":"13.000074","ctry_id":"15","country_name":"\u5fb7\u56fd"},{"city_id":"8624","city_name":"\u5317\u96ea\u5e73","en_name":"Norrk\u00f6ping","pingyin":"beixueping","latitude":"58.587746","longitude":"16.192421","ctry_id":"202","country_name":"\u745e\u5178"},{"city_id":"7202","city_name":"\u5df4\u7ea6\u8bb7","en_name":"Bayonne","pingyin":"beiyong","latitude":"43.483334","longitude":"-1.483333","ctry_id":"186","country_name":"\u6cd5\u56fd"},{"city_id":"13228","city_name":"\u5317\u7ea6\u514b\u90e1","en_name":"North Yorkshire","pingyin":"beiyuekejun","latitude":"54.250359","longitude":"-1.470855","ctry_id":"13","country_name":"\u82f1\u56fd"},{"city_id":"11661","city_name":"\u5317\u9547","en_name":"Beizhen","pingyin":"beizhen","latitude":"41.594746","longitude":"121.798683","ctry_id":"11","country_name":"\u4e2d\u56fd"},{"city_id":"9999","city_name":"\u672c\u8fea","en_name":"Bundi","pingyin":"bendi","latitude":"25.438150","longitude":"75.637306","ctry_id":"231","country_name":"\u5370\u5ea6"},{"city_id":"8416","city_name":"\u672c\u8fea\u5e03\u5c14","en_name":"Bandipur","pingyin":"bendibuer","latitude":"27.933332","longitude":"84.416664","ctry_id":"220","country_name":"\u5c3c\u6cca\u5c14"},{"city_id":"6607","city_name":"\u672c\u8fea\u6208","en_name":"Bendigo","pingyin":"bendige","latitude":"-36.766666","longitude":"144.283340","ctry_id":"240","country_name":"\u6fb3\u5927\u5229\u4e9a"},{"city_id":"9897","city_name":"\u672c\u5730\u6cbb\u91cc","en_name":"Pondicherry","pingyin":"bendizhili","latitude":"11.930964","longitude":"79.785179","ctry_id":"231","country_name":"\u5370\u5ea6"},{"city_id":"11331","city_name":"\u672c\u6258\u5854","en_name":"Bentota","pingyin":"bentuota","latitude":"6.420000","longitude":"80.000000","ctry_id":"537","country_name":"\u65af\u91cc\u5170\u5361"},{"city_id":"11654","city_name":"\u672c\u6eaa","en_name":"Benxi","pingyin":"benxi","latitude":"41.486980","longitude":"123.685143","ctry_id":"11","country_name":"\u4e2d\u56fd"},{"city_id":"9560","city_name":"\u82f1\u56fd\u5f7c\u5f97\u4f2f\u52d2","en_name":"Peterborough,UK","pingyin":"bidebole","latitude":"52.569500","longitude":"-0.240530","ctry_id":"13","country_name":"\u82f1\u56fd"},{"city_id":"7102","city_name":"\u5f7c\u5f97\u7f57\u624e\u6c83\u8328\u514b","en_name":"Petrozavodsk","pingyin":"bideluozhawocike","latitude":"61.816666","longitude":"34.333332","ctry_id":"208","country_name":"\u4fc4\u7f57\u65af"},{"city_id":"8528","city_name":"\u522b\u5e9c","en_name":"Beppu","pingyin":"biefu","latitude":"33.284618","longitude":"131.491211","ctry_id":"14","country_name":"\u65e5\u672c"},{"city_id":"10585","city_name":"\u522b\u514b\u65af\u5c9b","en_name":"Vieques","pingyin":"biekesidao","latitude":"18.126286","longitude":"-65.440102","ctry_id":"426","country_name":"\u6ce2\u591a\u9ece\u5404"},{"city_id":"10064","city_name":"\u6bd4\u5c14","en_name":"Biel","pingyin":"bier","latitude":"47.140186","longitude":"7.243773","ctry_id":"524","country_name":"\u745e\u58eb"},{"city_id":"9072","city_name":"\u6bd5\u5c14\u5df4\u9102","en_name":"Bilbao","pingyin":"bierbae","latitude":"43.250000","longitude":"-2.966667","ctry_id":"182","country_name":"\u897f\u73ed\u7259"},{"city_id":"7675","city_name":"\u6bd4\u5c14\u68ee","en_name":"Plzen","pingyin":"biersen","latitude":"49.750000","longitude":"13.366667","ctry_id":"193","country_name":"\u6377\u514b"},{"city_id":"11381","city_name":"\u6bd4\u54c8\u5c14\u90a6","en_name":"Bihar","pingyin":"bihaerbang","latitude":"25.203806","longitude":"85.509735","ctry_id":"231","country_name":"\u5370\u5ea6"},{"city_id":"11852","city_name":"\u6bd5\u8282","en_name":"Bijie","pingyin":"bijie","latitude":"27.283955","longitude":"105.291641","ctry_id":"11","country_name":"\u4e2d\u56fd"},{"city_id":"10004","city_name":"\u6bd4\u5361\u5185\u5c14","en_name":"Bikaner","pingyin":"bikaneier","latitude":"28.019890","longitude":"73.317551","ctry_id":"231","country_name":"\u5370\u5ea6"},{"city_id":"13772","city_name":"\u6bd4\u52d2\u8d39\u5c14\u5fb7","en_name":"Bielefeld","pingyin":"bilefeierde","latitude":"52.030228","longitude":"8.532471","ctry_id":"15","country_name":"\u5fb7\u56fd"},{"city_id":"10034","city_name":"\u6bd4\u96f7\u57c3\u592b\u65af","en_name":"Piraeus","pingyin":"bileiaifusi","latitude":"37.945190","longitude":"23.650221","ctry_id":"206","country_name":"\u5e0c\u814a"},{"city_id":"8395","city_name":"\u6bd4\u52d2\u9640\u5229\u4e9a","en_name":"Pretoria","pingyin":"biletuoliya","latitude":"-25.731340","longitude":"28.218370","ctry_id":"517","country_name":"\u5357\u975e"},{"city_id":"10206","city_name":"\u6bd4\u7075\u65af","en_name":"Billings","pingyin":"bilingsi","latitude":"45.783287","longitude":"-108.500687","ctry_id":"236","country_name":"\u7f8e\u56fd"},{"city_id":"10174","city_name":"\u6bd4\u9686","en_name":"Billund","pingyin":"bilong","latitude":"55.728451","longitude":"9.112366","ctry_id":"205","country_name":"\u4e39\u9ea6"},{"city_id":"7801","city_name":"\u69df\u57ce","en_name":"Penang","pingyin":"bincheng","latitude":"5.424578","longitude":"100.314339","ctry_id":"213","country_name":"\u9a6c\u6765\u897f\u4e9a"},{"city_id":"11349","city_name":"\u5175\u5e93\u53bf","en_name":"Hyogo","pingyin":"bingku","latitude":"35.031570","longitude":"134.839752","ctry_id":"14","country_name":"\u65e5\u672c"},{"city_id":"12474","city_name":"\u4e19\u4e2d\u6d1b","en_name":"Bingzhongluo","pingyin":"bingzhongluo","latitude":"28.015085","longitude":"98.621910","ctry_id":"11","country_name":"\u4e2d\u56fd"},{"city_id":"12790","city_name":"\u6ee8\u6d77","en_name":"Binhai","pingyin":"binhai","latitude":"33.990334","longitude":"119.820831","ctry_id":"11","country_name":"\u4e2d\u56fd"},{"city_id":"10076","city_name":"\u6ee8\u6d77\u81ea\u7531\u57ce","en_name":"Villefranche-Sur-Mer","pingyin":"binhaiziyoucheng","latitude":"43.703976","longitude":"7.311109","ctry_id":"186","country_name":"\u6cd5\u56fd"},{"city_id":"10360","city_name":"\u6bd4\u5c3c\u4e9a\u5fb7\u5c14\u9a6c","en_name":"Vina Del Mar","pingyin":"biniyadeerma","latitude":"-33.024529","longitude":"-71.552338","ctry_id":"575","country_name":"\u667a\u5229"},{"city_id":"10746","city_name":"\u6bd4\u5c3c\u4e9a\u83b1\u65af","en_name":"Vinales","pingyin":"biniyalaisi","latitude":"22.615278","longitude":"-83.715836","ctry_id":"458","country_name":"\u53e4\u5df4"},{"city_id":"13782","city_name":"\u5bbe\u90a3\u4f1f\u62c9","en_name":"Pinnawala","pingyin":"binnaweila","latitude":"7.301495","longitude":"80.386742","ctry_id":"537","country_name":"\u65af\u91cc\u5170\u5361"},{"city_id":"12549","city_name":"\u5bbe\u53bf","en_name":"Binxian","pingyin":"binxian","latitude":"45.745121","longitude":"127.466888","ctry_id":"11","country_name":"\u4e2d\u56fd"},{"city_id":"7902","city_name":"\u5bbe\u5915\u6cd5\u5c3c\u4e9a\u5dde","en_name":"Pennsylvania","pingyin":"binxifaniyazhou","latitude":"41.203323","longitude":"-77.194527","ctry_id":"236","country_name":"\u7f8e\u56fd"},{"city_id":"11847","city_name":"\u6ee8\u5dde","en_name":"Binzhou","pingyin":"binzhou","latitude":"37.381989","longitude":"117.970703","ctry_id":"11","country_name":"\u4e2d\u56fd"},{"city_id":"13359","city_name":"\u6bd4\u5947\u8bfa","en_name":"Bicheno","pingyin":"biqinuo","latitude":"-41.874615","longitude":"148.303711","ctry_id":"240","country_name":"\u6fb3\u5927\u5229\u4e9a"},{"city_id":"12679","city_name":"\u6bd4\u5982","en_name":"Biru","pingyin":"biru","latitude":"31.480249","longitude":"93.679642","ctry_id":"11","country_name":"\u4e2d\u56fd"},{"city_id":"9822","city_name":"\u6bd4\u8428","en_name":"Pisa","pingyin":"bisa","latitude":"43.722839","longitude":"10.401689","ctry_id":"189","country_name":"\u610f\u5927\u5229"},{"city_id":"13017","city_name":"\u74a7\u5c71","en_name":"Bishan","pingyin":"bishan","latitude":"29.592024","longitude":"106.227303","ctry_id":"11","country_name":"\u4e2d\u56fd"},{"city_id":"7504","city_name":"\u6bd4\u4ec0\u51ef\u514b","en_name":"Bishkek","pingyin":"bishenkaike","latitude":"42.873055","longitude":"74.600281","ctry_id":"468","country_name":"\u5409\u5c14\u5409\u65af\u65af\u5766"},{"city_id":"13775","city_name":"\u6bd4\u65af\u7279","en_name":"Bicester","pingyin":"bisite","latitude":"51.899605","longitude":"-1.153590","ctry_id":"13","country_name":"\u82f1\u56fd"},{"city_id":"7203","city_name":"\u6bd4\u963f\u91cc\u8328","en_name":"Biarritz","pingyin":"biyalici","latitude":"43.483150","longitude":"-1.558626","ctry_id":"186","country_name":"\u6cd5\u56fd"},{"city_id":"7265","city_name":"\u78a7\u7476","en_name":"Baguio","pingyin":"biyao","latitude":"16.388277","longitude":"120.598778","ctry_id":"446","country_name":"\u83f2\u5f8b\u5bbe"},{"city_id":"7657","city_name":"\u6ce2\u8d1d","en_name":"Poipet","pingyin":"bobei","latitude":"13.656111","longitude":"102.562500","ctry_id":"219","country_name":"\u67ec\u57d4\u5be8"},{"city_id":"7032","city_name":"\u6ce2\u8328\u5766","en_name":"Potsdam","pingyin":"bocitan","latitude":"52.394188","longitude":"13.072691","ctry_id":"15","country_name":"\u5fb7\u56fd"},{"city_id":"7481","city_name":"\u6ce2\u5fb7\u6208\u91cc\u5bdf","en_name":"Podgorica","pingyin":"bodegelicha","latitude":"42.442574","longitude":"19.268646","ctry_id":"464","country_name":"\u9ed1\u5c71"},{"city_id":"8907","city_name":"\u535a\u5fb7\u9c81\u59c6","en_name":"Bodrum","pingyin":"bodelumu","latitude":"37.032124","longitude":"27.420818","ctry_id":"195","country_name":"\u571f\u8033\u5176"},{"city_id":"13793","city_name":"\u6ce2\u5fb7\u7533","en_name":"Port Dickson","pingyin":"bodeshen","latitude":"2.522540","longitude":"101.796295","ctry_id":"213","country_name":"\u9a6c\u6765\u897f\u4e9a"},{"city_id":"8454","city_name":"\u535a\u591a","en_name":"Bodo","pingyin":"boduo","latitude":"67.283333","longitude":"14.383333","ctry_id":"521","country_name":"\u632a\u5a01"},{"city_id":"7033","city_name":"\u6ce2\u6069","en_name":"Bonn","pingyin":"boen","latitude":"50.733334","longitude":"7.100000","ctry_id":"15","country_name":"\u5fb7\u56fd"},{"city_id":"9562","city_name":"\u4f2f\u6069\u8305\u65af","en_name":"Bournemouth","pingyin":"boenmaosi","latitude":"50.716667","longitude":"-1.883333","ctry_id":"13","country_name":"\u82f1\u56fd"},{"city_id":"7909","city_name":"\u535a\u5c14\u5fb7","en_name":"Boulder","pingyin":"boerde","latitude":"40.014999","longitude":"-105.269997","ctry_id":"236","country_name":"\u7f8e\u56fd"},{"city_id":"7204","city_name":"\u6ce2\u5c14\u591a","en_name":"Bordeaux","pingyin":"boerduo","latitude":"44.837788","longitude":"-0.579180","ctry_id":"186","country_name":"\u6cd5\u56fd"},{"city_id":"8644","city_name":"\u4f2f\u5c14\u5c3c","en_name":"Bern","pingyin":"boerni","latitude":"46.916668","longitude":"7.466667","ctry_id":"524","country_name":"\u745e\u58eb"},{"city_id":"11585","city_name":"\u4f2f\u5c14\u5c3c\u9ad8\u5730","en_name":"Bernese Oberland","pingyin":"boernigaodi","latitude":"46.947922","longitude":"7.444609","ctry_id":"524","country_name":"\u745e\u58eb"},{"city_id":"13188","city_name":"\u4f2f\u5c14\u5c3c\u5dde","en_name":"Kanton Bern","pingyin":"boernizhou","latitude":"46.798862","longitude":"7.708070","ctry_id":"524","country_name":"\u745e\u58eb"},{"city_id":"11950","city_name":"\u535a\u5c14\u5854\u62c9","en_name":"Boertala","pingyin":"boertala","latitude":"44.906067","longitude":"82.066383","ctry_id":"11","country_name":"\u4e2d\u56fd"},{"city_id":"8508","city_name":"\u6ce2\u5c14\u56fe","en_name":"Porto","pingyin":"boertu","latitude":"41.149967","longitude":"-8.610243","ctry_id":"523","country_name":"\u8461\u8404\u7259"},{"city_id":"9293","city_name":"\u535a\u5c14\u624e\u8bfa","en_name":"Bolzano","pingyin":"boerzhanuo","latitude":"46.498295","longitude":"11.354758","ctry_id":"189","country_name":"\u610f\u5927\u5229"},{"city_id":"13137","city_name":"\u6ce2\u5384\u65af\u90e1","en_name":"Powys","pingyin":"boesijun","latitude":"52.143085","longitude":"-3.373682","ctry_id":"13","country_name":"\u82f1\u56fd"},{"city_id":"7802","city_name":"\u4fdd\u4f5b","en_name":"Beaufort","pingyin":"bofute","latitude":"5.333333","longitude":"115.750000","ctry_id":"213","country_name":"\u9a6c\u6765\u897f\u4e9a"},{"city_id":"7340","city_name":"\u6ce2\u54e5\u5927","en_name":"Bogota","pingyin":"bogeda","latitude":"4.598056","longitude":"-74.075836","ctry_id":"453","country_name":"\u54e5\u4f26\u6bd4\u4e9a"},{"city_id":"7206","city_name":"\u52c3\u826e\u7b2c","en_name":"Bourgogne","pingyin":"bogendijiluona","latitude":"47.052505","longitude":"4.383722","ctry_id":"186","country_name":"\u6cd5\u56fd"},{"city_id":"8271","city_name":"\u52c3\u56fa","en_name":"Bago ","pingyin":"bogu","latitude":"17.333332","longitude":"96.483330","ctry_id":"511","country_name":"\u7f05\u7538"},{"city_id":"9967","city_name":"\u6ce2\u9e3f","en_name":"Bochum","pingyin":"bohong","latitude":"51.481846","longitude":"7.216236","ctry_id":"15","country_name":"\u5fb7\u56fd"},{"city_id":"60","city_name":"\u535a\u5361\u62c9","en_name":"Pokhara","pingyin":"bokala","latitude":"28.211563","longitude":"83.980911","ctry_id":"220","country_name":"\u5c3c\u6cca\u5c14"},{"city_id":"13216","city_name":"\u4f2f\u514b\u90e1","en_name":"Berkshire","pingyin":"bokejun","latitude":"51.465984","longitude":"-1.281401","ctry_id":"13","country_name":"\u82f1\u56fd"},{"city_id":"7906","city_name":"\u4f2f\u514b\u5229","en_name":"Berkeley","pingyin":"bokeli","latitude":"37.871666","longitude":"-122.271667","ctry_id":"236","country_name":"\u7f8e\u56fd"},{"city_id":"9921","city_name":"\u6ce2\u62c9\u6ce2\u62c9\u5c9b","en_name":"Bora Bora","pingyin":"bolaboladao","latitude":"-16.500414","longitude":"-151.741486","ctry_id":"545","country_name":"\u6cd5\u5c5e\u6ce2\u5229\u5c3c\u897f\u4e9a"},{"city_id":"13192","city_name":"\u52c3\u5170\u767b\u5821\u5dde","en_name":"Land Brandenburg","pingyin":"bolandengbaozhou","latitude":"52.008194","longitude":"13.770015","ctry_id":"15","country_name":"\u5fb7\u56fd"},{"city_id":"12008","city_name":"\u535a\u4e50","en_name":"Bole","pingyin":"bole","latitude":"44.853870","longitude":"82.051003","ctry_id":"11","country_name":"\u4e2d\u56fd"},{"city_id":"9253","city_name":"\u4f2f\u5229\u6052","en_name":"Bethlehem","pingyin":"boliheng","latitude":"31.705751","longitude":"35.202660","ctry_id":"2041","country_name":"\u5df4\u52d2\u65af\u5766"},{"city_id":"17","city_name":"\u67cf\u6797","en_name":"Berlin","pingyin":"bolin","latitude":"52.524269","longitude":"13.406290","ctry_id":"15","country_name":"\u5fb7\u56fd"},{"city_id":"6986","city_name":"\u4f2f\u5229\u5179\u57ce","en_name":"Belize city","pingyin":"bolizicheng","latitude":"17.483334","longitude":"-88.183334","ctry_id":"430","country_name":"\u4f2f\u5229\u5179"},{"city_id":"8703","city_name":"\u6ce2\u9686\u7eb3\u9c81\u6c83","en_name":"Polonnaruwa","pingyin":"bolongnaluwo","latitude":"7.933333","longitude":"81.000000","ctry_id":"537","country_name":"\u65af\u91cc\u5170\u5361"},{"city_id":"13232","city_name":"\u4f2f\u7f57\u5954\u5c3c\u6492\u534a\u5c9b","en_name":"Peloponnese","pingyin":"boluobennisabandao","latitude":"37.349724","longitude":"22.352222","ctry_id":"206","country_name":"\u5e0c\u814a"},{"city_id":"9294","city_name":"\u535a\u6d1b\u5c3c\u4e9a","en_name":"Bologna","pingyin":"boluoniya","latitude":"44.483334","longitude":"11.333333","ctry_id":"189","country_name":"\u610f\u5927\u5229"},{"city_id":"11973","city_name":"\u6ce2\u5bc6","en_name":"Bomi","pingyin":"bomi","latitude":"29.859028","longitude":"95.767914","ctry_id":"11","country_name":"\u4e2d\u56fd"},{"city_id":"9565","city_name":"\u4f2f\u660e\u7ff0","en_name":"Birmingham","pingyin":"bominghan","latitude":"52.466667","longitude":"-1.916667","ctry_id":"13","country_name":"\u82f1\u56fd"},{"city_id":"7207","city_name":"\u535a\u8bb7","en_name":"Beaune","pingyin":"bone","latitude":"47.026031","longitude":"4.840004","ctry_id":"186","country_name":"\u6cd5\u56fd"},{"city_id":"13804","city_name":"\u6ce2\u666e","en_name":"Bophut ","pingyin":"boputuo","latitude":"9.578246","longitude":"99.998451","ctry_id":"215","country_name":"\u6cf0\u56fd"},{"city_id":"10002","city_name":"\u52c3\u751f","en_name":"Pathein","pingyin":"bosheng","latitude":"16.774166","longitude":"94.731667","ctry_id":"511","country_name":"\u7f05\u7538"},{"city_id":"7904","city_name":"\u6ce2\u58eb\u987f","en_name":"Boston","pingyin":"boshidun","latitude":"42.358433","longitude":"-71.059776","ctry_id":"236","country_name":"\u7f8e\u56fd"},{"city_id":"8730","city_name":"\u6ce2\u65af\u6258\u4f0a\u7eb3","en_name":"Postojna","pingyin":"bosituoyina","latitude":"45.776943","longitude":"14.216667","ctry_id":"539","country_name":"\u65af\u6d1b\u6587\u5c3c\u4e9a"},{"city_id":"7905","city_name":"\u6ce2\u7279\u5170","en_name":"Portland","pingyin":"botelan","latitude":"45.523453","longitude":"-122.676208","ctry_id":"236","country_name":"\u7f8e\u56fd"},{"city_id":"13101","city_name":"\u6ce2\u7279\u5170(\u7f05\u56e0\u5dde)","en_name":"Portland,ME","pingyin":"botelandong","latitude":"43.663658","longitude":"-70.253059","ctry_id":"236","country_name":"\u7f8e\u56fd"},{"city_id":"13806","city_name":"\u6ce2\u7279\u91cc","en_name":"Portree","pingyin":"boteli","latitude":"57.412476","longitude":"-6.196023","ctry_id":"13","country_name":"\u82f1\u56fd"},{"city_id":"6970","city_name":"\u6ce2\u6258\u897f","en_name":"Potosi","pingyin":"botuoxi","latitude":"-19.583611","longitude":"-65.753059","ctry_id":"429","country_name":"\u73bb\u5229\u7ef4\u4e9a"},{"city_id":"13820","city_name":"\u535a\u97e6","en_name":"Beauvais","pingyin":"bowei","latitude":"49.429539","longitude":"2.080712","ctry_id":"186","country_name":"\u6cd5\u56fd"},{"city_id":"7671","city_name":"\u6ce2\u5e0c\u7c73\u4e9a\u68ee\u6797\uff08Sumava\uff09","en_name":"Bohemia Forest","pingyin":"boximiyadiqu","latitude":"49.148949","longitude":"13.232406","ctry_id":"193","country_name":"\u6377\u514b"},{"city_id":"9291","city_name":"\u6ce2\u897f\u5854\u8bfa","en_name":"Positano","pingyin":"boxitanuo","latitude":"40.633331","longitude":"14.483333","ctry_id":"189","country_name":"\u610f\u5927\u5229"},{"city_id":"7910","city_name":"\u535a\u4f0a\u897f","en_name":"Boise","pingyin":"boyixi","latitude":"43.613609","longitude":"-116.202499","ctry_id":"236","country_name":"\u7f8e\u56fd"},{"city_id":"12050","city_name":"\u4eb3\u5dde","en_name":"Bozhou","pingyin":"bozhou","latitude":"33.844582","longitude":"115.778679","ctry_id":"11","country_name":"\u4e2d\u56fd"},{"city_id":"7911","city_name":"\u535a\u5179\u66fc","en_name":"Bozeman","pingyin":"boziman","latitude":"45.679722","longitude":"-111.037781","ctry_id":"236","country_name":"\u7f8e\u56fd"},{"city_id":"9806","city_name":"\u6ce2\u5179\u5357","en_name":"Poznan","pingyin":"bozinan","latitude":"52.406376","longitude":"16.925167","ctry_id":"427","country_name":"\u6ce2\u5170"},{"city_id":"6456","city_name":"\u90fd\u67cf\u6797","en_name":"Dublin","pingyin":"bubolin","latitude":"53.344105","longitude":"-6.267494","ctry_id":"406","country_name":"\u7231\u5c14\u5170"},{"city_id":"9905","city_name":"\u5e03\u57ce","en_name":"Putrajaya","pingyin":"bucheng","latitude":"2.926361","longitude":"101.696442","ctry_id":"213","country_name":"\u9a6c\u6765\u897f\u4e9a"},{"city_id":"48","city_name":"\u5e03\u8fbe\u4f69\u65af","en_name":"Budapest","pingyin":"budapeisi","latitude":"47.498405","longitude":"19.040758","ctry_id":"207","country_name":"\u5308\u7259\u5229"},{"city_id":"7482","city_name":"\u5e03\u5fb7\u74e6","en_name":"Budva","pingyin":"budewa","latitude":"42.288055","longitude":"18.842501","ctry_id":"464","country_name":"\u9ed1\u5c71"},{"city_id":"13165","city_name":"\u5e03\u5c14\u6839\u5170\u5dde","en_name":"Burgenland","pingyin":"buergenlanzhou","latitude":"47.153717","longitude":"16.268881","ctry_id":"198","country_name":"\u5965\u5730\u5229"},{"city_id":"9073","city_name":"\u5e03\u5c14\u6208\u65af","en_name":"Burgos","pingyin":"buergesi","latitude":"42.349998","longitude":"-3.700000","ctry_id":"182","country_name":"\u897f\u73ed\u7259"},{"city_id":"12012","city_name":"\u5e03\u5c14\u6d25","en_name":"Buerjin","pingyin":"buerjin","latitude":"47.701851","longitude":"86.874893","ctry_id":"11","country_name":"\u4e2d\u56fd"},{"city_id":"7672","city_name":"\u5e03\u5c14\u8bfa","en_name":"Brno","pingyin":"buernuo","latitude":"49.200001","longitude":"16.633333","ctry_id":"193","country_name":"\u6377\u514b"},{"city_id":"8908","city_name":"\u5e03\u5c14\u8428","en_name":"Bursa","pingyin":"buersa","latitude":"40.266865","longitude":"29.063448","ctry_id":"195","country_name":"\u571f\u8033\u5176"},{"city_id":"9883","city_name":"\u5e03\u54c8\u62c9","en_name":"Bukhara","pingyin":"buhala","latitude":"39.765869","longitude":"64.422348","ctry_id":"562","country_name":"\u4e4c\u5179\u522b\u514b\u65af\u5766"},{"city_id":"7760","city_name":"\u5e03\u52a0\u52d2\u65af\u7279","en_name":"Bucharest","pingyin":"bujialesite","latitude":"44.433334","longitude":"26.100000","ctry_id":"495","country_name":"\u7f57\u9a6c\u5c3c\u4e9a"},{"city_id":"7338","city_name":"\u5e03\u62c9\u67f4\u7ef4\u5c14","en_name":"Brazzaville","pingyin":"bulachaiweier","latitude":"-4.259167","longitude":"15.284722","ctry_id":"451","country_name":"\u521a\u679c"},{"city_id":"9568","city_name":"\u5e03\u62c9\u5fb7\u798f\u5fb7","en_name":"Bradford","pingyin":"buladefude","latitude":"53.783333","longitude":"-1.750000","ctry_id":"13","country_name":"\u82f1\u56fd"},{"city_id":"8729","city_name":"\u5e03\u62c9\u8fea\u65af\u62c9\u53d1","en_name":"Bratislava","pingyin":"buladisilafa","latitude":"48.150002","longitude":"17.116667","ctry_id":"538","country_name":"\u65af\u6d1b\u4f10\u514b"},